Address,City,State,Zip,AUTO_UNIQUE_ID_2019-08-19_glenpark_address_set_4,Source,TimeTaken,UpdatedGeocoding,Version,ErrorMessage,TransactionId,naaccrQualCode,naaccrQualType,FeatureMatchingResultType,MatchedLocationType,RegionSizeUnits,InterpolationType,RegionSize,InterpolationSubType,FeatureMatchingGeographyType,MatchScore,FeatureMatchingHierarchy,TieHandlingStrategyType,FeatureMatchingResultTypeTieBreakingNotes,GeocodeQualityType,FeatureMatchingHierarchyNotes,FeatureMatchingResultTypeNotes,FeatureMatchingResultCount,Latitude,Longitude,MatchType
2900 MARKET ST,Oakland,CA,,1,USCGeocoder,31.274,1,4.1,,,03,StreetSegmentInterpolation,Success,LOCATION_TYPE_STREET_ADDRESS,Meters,LinearInterpolation,3482.47952244896,LinearInterpolationAddressRange,StreetSegment,96.0059171597633,FeatureClassBased,ReturnAll,,AddressRangeInterpolation,,,1,37.8199718055803,-122.276638455072,Relaxed
6600 HELEN CT,Oakland,CA,,2,USCGeocoder,46.9047,1,4.1,,,03,StreetSegmentInterpolation,Success,LOCATION_TYPE_STREET_ADDRESS,Meters,LinearInterpolation,1676.11562253837,LinearInterpolationAddressRange,StreetSegment,96.0059171597633,FeatureClassBased,ReturnAll,,AddressRangeInterpolation,,,1,37.8490482444111,-122.284611755183,Relaxed
4TH ST & FRANKLIN ST,Oakland,CA,,3,USCGeocoder,46.8948,1,4.1,,,11,CityCentroid,Success,LOCATION_TYPE_STREET_ADDRESS,Meters,ArealInterpolation,206369070.265232,ArealInterpolationGeometricCentroid,City,50,FeatureClassBased,ReturnAll,,CityCentroid,,,1,37.7710887807485,-122.224976664539,Relaxed;Soundex
22ND ST & VALLEY ST,Oakland,CA,,4,USCGeocoder,31.2851,1,4.1,,,11,CityCentroid,Success,LOCATION_TYPE_STREET_ADDRESS,Meters,ArealInterpolation,206369070.265232,ArealInterpolationGeometricCentroid,City,50,FeatureClassBased,ReturnAll,,CityCentroid,,,1,37.7710887807485,-122.224976664539,Relaxed;Soundex
3200 E 16TH ST,Oakland,CA,,5,USCGeocoder,218.6451,1,4.1,,,03,StreetSegmentInterpolation,Success,LOCATION_TYPE_STREET_ADDRESS,Meters,LinearInterpolation,2139.57186659984,LinearInterpolationAddressRange,StreetSegment,96.0059171597633,FeatureClassBased,ReturnAll,,AddressRangeInterpolation,,,1,37.7803881646053,-122.224422443821,Relaxed
17TH ST & WOOD ST,Oakland,CA,,6,USCGeocoder,31.2417,1,4.1,,,11,CityCentroid,Success,LOCATION_TYPE_STREET_ADDRESS,Meters,ArealInterpolation,206369070.265232,ArealInterpolationGeometricCentroid,City,50,FeatureClassBased,ReturnAll,,CityCentroid,,,1,37.7710887807485,-122.224976664539,Relaxed;Soundex
2500 BEST AV,Oakland,CA,,7,USCGeocoder,218.7273,1,4.1,,,00,AddressPoint,Success,LOCATION_TYPE_STREET_ADDRESS,Meters,ArealInterpolation,0,ArealInterpolationGeometricCentroid,Parcel,97.3372781065089,FeatureClassBased,ReturnAll,,AddressPoint,,,1,37.7769624,-122.1997977,Relaxed
1600 38TH AV,Oakland,CA,,8,USCGeocoder,109.3525,1,4.1,,,03,StreetSegmentInterpolation,Success,LOCATION_TYPE_STREET_ADDRESS,Meters,LinearInterpolation,5445.98143267585,LinearInterpolationAddressRange,StreetSegment,96.0059171597633,FeatureClassBased,ReturnAll,,AddressRangeInterpolation,,,1,37.7765024282892,-122.218527893509,Relaxed
HEGENBERGER CT & HEGENBERGER LOOP,Oakland,CA,,9,USCGeocoder,31.2523,1,4.1,,,11,CityCentroid,Success,LOCATION_TYPE_STREET_ADDRESS,Meters,ArealInterpolation,206369070.265232,ArealInterpolationGeometricCentroid,City,50,FeatureClassBased,ReturnAll,,CityCentroid,,,1,37.7710887807485,-122.224976664539,Relaxed;Soundex
9300 CORAL RD,Oakland,CA,,10,USCGeocoder,203.1035,1,4.1,,,00,AddressPoint,Success,LOCATION_TYPE_STREET_ADDRESS,Meters,ArealInterpolation,0,ArealInterpolationGeometricCentroid,Parcel,97.3372781065089,FeatureClassBased,ReturnAll,,AddressPoint,,,1,37.7351899,-122.1921651,Relaxed
9500 WALNUT ST,Oakland,CA,,11,USCGeocoder,78.1254,1,4.1,,,03,StreetSegmentInterpolation,Success,LOCATION_TYPE_STREET_ADDRESS,Meters,LinearInterpolation,3923.16883422248,LinearInterpolationAddressRange,StreetSegment,96.0059171597633,FeatureClassBased,ReturnAll,,AddressRangeInterpolation,,,1,37.7475655397733,-122.169777068464,Relaxed
3200 BIRDSALL AV,Oakland,CA,,12,USCGeocoder,203.1118,1,4.1,,,00,AddressPoint,Success,LOCATION_TYPE_STREET_ADDRESS,Meters,ArealInterpolation,0,ArealInterpolationGeometricCentroid,Parcel,97.3372781065089,FeatureClassBased,ReturnAll,,AddressPoint,,,1,37.7812225,-122.1918196,Relaxed
GRIZZLY PEAK BLVD & MARLBOROUGH TER,Oakland,CA,,13,USCGeocoder,31.2264,1,4.1,,,11,CityCentroid,Success,LOCATION_TYPE_STREET_ADDRESS,Meters,ArealInterpolation,206369070.265232,ArealInterpolationGeometricCentroid,City,50,FeatureClassBased,ReturnAll,,CityCentroid,,,1,37.7710887807485,-122.224976664539,Relaxed;Soundex
300 60TH ST,Oakland,CA,,14,USCGeocoder,93.7468,1,4.1,,,03,StreetSegmentInterpolation,Success,LOCATION_TYPE_STREET_ADDRESS,Meters,LinearInterpolation,4628.39973407285,LinearInterpolationAddressRange,StreetSegment,96.0059171597633,FeatureClassBased,ReturnAll,,AddressRangeInterpolation,,,1,37.8472216002526,-122.254262033675,Relaxed
0 GARLAND AV,Oakland,CA,,15,USCGeocoder,125.0679,1,4.1,,,11,CityCentroid,Success,LOCATION_TYPE_STREET_ADDRESS,Meters,ArealInterpolation,206369070.265232,ArealInterpolationGeometricCentroid,City,50,FeatureClassBased,ReturnAll,,CityCentroid,,,1,37.7710887807485,-122.224976664539,Relaxed;Soundex
3500 REDWOOD RD,Oakland,CA,,16,USCGeocoder,62.4395,1,4.1,,,03,StreetSegmentInterpolation,Success,LOCATION_TYPE_STREET_ADDRESS,Meters,LinearInterpolation,735.474072712008,LinearInterpolationAddressRange,StreetSegment,96.0059171597633,FeatureClassBased,ReturnAll,,AddressRangeInterpolation,,,1,37.7989615101735,-122.191765373725,Relaxed
11300 GOLF LINKS RD,Oakland,CA,,17,USCGeocoder,171.8372,1,4.1,,,00,AddressPoint,Success,LOCATION_TYPE_STREET_ADDRESS,Meters,ArealInterpolation,0,ArealInterpolationGeometricCentroid,Parcel,97.3372781065089,FeatureClassBased,ReturnAll,,AddressPoint,,,1,37.7487433,-122.1216183,Relaxed
1000 KIRKHAM CT,Oakland,CA,,18,USCGeocoder,47.0096,1,4.1,,,03,StreetSegmentInterpolation,Success,LOCATION_TYPE_STREET_ADDRESS,Meters,LinearInterpolation,1386.13802162837,LinearInterpolationAddressRange,StreetSegment,90.0887573964497,FeatureClassBased,ReturnAll,,AddressRangeInterpolation,,,1,37.807991966452,-122.291159794578,Relaxed
600 MOUNTAIN BLVD,Oakland,CA,,19,USCGeocoder,202.9633,1,4.1,,,00,AddressPoint,Success,LOCATION_TYPE_STREET_ADDRESS,Meters,ArealInterpolation,0,ArealInterpolationGeometricCentroid,Parcel,97.3372781065089,FeatureClassBased,ReturnAll,,AddressPoint,,,1,37.8443582,-122.2240039,Relaxed
3300 GLENLY RD,Oakland,CA,,20,USCGeocoder,218.795,1,4.1,,,00,AddressPoint,Success,LOCATION_TYPE_STREET_ADDRESS,Meters,ArealInterpolation,0,ArealInterpolationGeometricCentroid,Parcel,97.3372781065089,FeatureClassBased,ReturnAll,,AddressPoint,,,1,37.7594039,-122.1553215,Relaxed
5900 BROADWAY,Oakland,CA,,21,USCGeocoder,203.1239,1,4.1,,,00,AddressPoint,Success,LOCATION_TYPE_STREET_ADDRESS,Meters,ArealInterpolation,0,ArealInterpolationGeometricCentroid,Parcel,97.3372781065089,FeatureClassBased,ReturnAll,,AddressPoint,,,1,37.8417473,-122.2365181,Relaxed
8400 E ST,Oakland,CA,,22,USCGeocoder,62.5002,1,4.1,,,03,StreetSegmentInterpolation,Success,LOCATION_TYPE_STREET_ADDRESS,Meters,LinearInterpolation,2248.86842110148,LinearInterpolationAddressRange,StreetSegment,96.0059171597633,FeatureClassBased,ReturnAll,,AddressRangeInterpolation,,,1,37.7510713286119,-122.184206802604,Relaxed
100 FLORENCE AV,Oakland,CA,,23,USCGeocoder,93.7489,1,4.1,,,03,StreetSegmentInterpolation,Success,LOCATION_TYPE_STREET_ADDRESS,Meters,LinearInterpolation,3961.40164830536,LinearInterpolationAddressRange,StreetSegment,96.0059171597633,FeatureClassBased,ReturnAll,,AddressRangeInterpolation,,,1,37.8418575564293,-122.229818802494,Relaxed
5600 THORNHILL DR,Oakland,CA,,24,USCGeocoder,62.5258,1,4.1,,,03,StreetSegmentInterpolation,Success,LOCATION_TYPE_STREET_ADDRESS,Meters,LinearInterpolation,2187.37314492883,LinearInterpolationAddressRange,StreetSegment,96.0059171597633,FeatureClassBased,ReturnAll,,AddressRangeInterpolation,,,1,37.8327342445833,-122.214478462582,Relaxed
2100 17TH AV,Oakland,CA,,25,USCGeocoder,265.6205,1,4.1,,,03,StreetSegmentInterpolation,Success,LOCATION_TYPE_STREET_ADDRESS,Meters,LinearInterpolation,2435.57743059704,LinearInterpolationAddressRange,StreetSegment,96.0059171597633,FeatureClassBased,ReturnAll,,AddressRangeInterpolation,,,1,37.7926870942343,-122.238225465915,Relaxed
39TH AV & SELKIRK ST,Oakland,CA,,26,USCGeocoder,31.2704,1,4.1,,,11,CityCentroid,Success,LOCATION_TYPE_STREET_ADDRESS,Meters,ArealInterpolation,206369070.265232,ArealInterpolationGeometricCentroid,City,50,FeatureClassBased,ReturnAll,,CityCentroid,,,1,37.7710887807485,-122.224976664539,Relaxed;Soundex
3100 ROBINSON DR,Oakland,CA,,27,USCGeocoder,218.7496,1,4.1,,,00,AddressPoint,Success,LOCATION_TYPE_STREET_ADDRESS,Meters,ArealInterpolation,0,ArealInterpolationGeometricCentroid,Parcel,97.3372781065089,FeatureClassBased,ReturnAll,,AddressPoint,,,1,37.8092587,-122.1830263,Relaxed
800 85TH AV,Oakland,CA,,28,USCGeocoder,78.1351,1,4.1,,,03,StreetSegmentInterpolation,Success,LOCATION_TYPE_STREET_ADDRESS,Meters,LinearInterpolation,2051.48604242364,LinearInterpolationAddressRange,StreetSegment,96.0059171597633,FeatureClassBased,ReturnAll,,AddressRangeInterpolation,,,1,37.7486047723156,-122.186305655946,Relaxed
1900 E 22ND ST,Oakland,CA,,29,USCGeocoder,93.6743,1,4.1,,,03,StreetSegmentInterpolation,Success,LOCATION_TYPE_STREET_ADDRESS,Meters,LinearInterpolation,4807.56153725088,LinearInterpolationAddressRange,StreetSegment,96.0059171597633,FeatureClassBased,ReturnAll,,AddressRangeInterpolation,,,1,37.7922980608503,-122.235388348885,Relaxed
1600 CHESTNUT ST,Oakland,CA,,30,USCGeocoder,31.2273,1,4.1,,,03,StreetSegmentInterpolation,Success,LOCATION_TYPE_STREET_ADDRESS,Meters,LinearInterpolation,3144.68085078429,LinearInterpolationAddressRange,StreetSegment,96.0059171597633,FeatureClassBased,ReturnAll,,AddressRangeInterpolation,,,1,37.8108095955424,-122.284460103709,Relaxed
6100 BRANN ST,Oakland,CA,,31,USCGeocoder,46.7694,1,4.1,,,03,StreetSegmentInterpolation,Success,LOCATION_TYPE_STREET_ADDRESS,Meters,LinearInterpolation,2015.85505409958,LinearInterpolationAddressRange,StreetSegment,96.0059171597633,FeatureClassBased,ReturnAll,,AddressRangeInterpolation,,,1,37.7731515568151,-122.18484634934,Relaxed
700 19TH ST,Oakland,CA,,32,USCGeocoder,250.012,1,4.1,,,03,StreetSegmentInterpolation,Success,LOCATION_TYPE_STREET_ADDRESS,Meters,LinearInterpolation,1096.50285670976,LinearInterpolationAddressRange,StreetSegment,96.0059171597633,FeatureClassBased,ReturnAll,,AddressRangeInterpolation,,,1,37.8105967899128,-122.276431331184,Relaxed
2900 82ND AV,Oakland,CA,,33,USCGeocoder,93.7099,1,4.1,,,03,StreetSegmentInterpolation,Success,LOCATION_TYPE_STREET_ADDRESS,Meters,LinearInterpolation,2207.35292731179,LinearInterpolationAddressRange,StreetSegment,96.0059171597633,FeatureClassBased,ReturnAll,,AddressRangeInterpolation,,,1,37.7633393045811,-122.16340383126,Relaxed
77TH AV & HALLIDAY AV,Oakland,CA,,34,USCGeocoder,31.4266,1,4.1,,,11,CityCentroid,Success,LOCATION_TYPE_STREET_ADDRESS,Meters,ArealInterpolation,206369070.265232,ArealInterpolationGeometricCentroid,City,50,FeatureClassBased,ReturnAll,,CityCentroid,,,1,37.7710887807485,-122.224976664539,Relaxed;Soundex
21ST ST & FILBERT ST,Oakland,CA,,35,USCGeocoder,46.8879,1,4.1,,,11,CityCentroid,Success,LOCATION_TYPE_STREET_ADDRESS,Meters,ArealInterpolation,206369070.265232,ArealInterpolationGeometricCentroid,City,50,FeatureClassBased,ReturnAll,,CityCentroid,,,1,37.7710887807485,-122.224976664539,Relaxed;Soundex
98TH AV & WALTER AV,Oakland,CA,,36,USCGeocoder,31.2504,1,4.1,,,11,CityCentroid,Success,LOCATION_TYPE_STREET_ADDRESS,Meters,ArealInterpolation,206369070.265232,ArealInterpolationGeometricCentroid,City,50,FeatureClassBased,ReturnAll,,CityCentroid,,,1,37.7710887807485,-122.224976664539,Relaxed;Soundex
1400 31ST AV,Oakland,CA,,37,USCGeocoder,125.0057,1,4.1,,,03,StreetSegmentInterpolation,Success,LOCATION_TYPE_STREET_ADDRESS,Meters,LinearInterpolation,2059.59350704635,LinearInterpolationAddressRange,StreetSegment,96.0059171597633,FeatureClassBased,ReturnAll,,AddressRangeInterpolation,,,1,37.7779997579911,-122.22654041113,Relaxed
GOSS ST & WOOD ST,Oakland,CA,,38,USCGeocoder,15.6503,1,4.1,,,11,CityCentroid,Success,LOCATION_TYPE_STREET_ADDRESS,Meters,ArealInterpolation,206369070.265232,ArealInterpolationGeometricCentroid,City,50,FeatureClassBased,ReturnAll,,CityCentroid,,,1,37.7710887807485,-122.224976664539,Relaxed;Soundex
800 36TH AV,Oakland,CA,,39,USCGeocoder,109.4159,1,4.1,,,03,StreetSegmentInterpolation,Success,LOCATION_TYPE_STREET_ADDRESS,Meters,LinearInterpolation,1257.01792373369,LinearInterpolationAddressRange,StreetSegment,96.0059171597633,FeatureClassBased,ReturnAll,,AddressRangeInterpolation,,,1,37.7721854882544,-122.22433003733,Relaxed
6200 CASTLE DR,Oakland,CA,,40,USCGeocoder,234.3928,1,4.1,,,00,AddressPoint,Success,LOCATION_TYPE_STREET_ADDRESS,Meters,ArealInterpolation,0,ArealInterpolationGeometricCentroid,Parcel,97.3372781065089,FeatureClassBased,ReturnAll,,AddressPoint,,,1,37.8173119,-122.1919826,Relaxed
MORSE DR & SEMINARY AV,Oakland,CA,,41,USCGeocoder,31.2517,1,4.1,,,11,CityCentroid,Success,LOCATION_TYPE_STREET_ADDRESS,Meters,ArealInterpolation,206369070.265232,ArealInterpolationGeometricCentroid,City,50,FeatureClassBased,ReturnAll,,CityCentroid,,,1,37.7710887807485,-122.224976664539,Relaxed;Soundex
CLAREMONT AV & CLARKE ST,Oakland,CA,,42,USCGeocoder,31.2436,1,4.1,,,11,CityCentroid,Success,LOCATION_TYPE_STREET_ADDRESS,Meters,ArealInterpolation,206369070.265232,ArealInterpolationGeometricCentroid,City,50,FeatureClassBased,ReturnAll,,CityCentroid,,,1,37.7710887807485,-122.224976664539,Relaxed;Soundex
9100 MACARTHUR BLVD,Oakland,CA,,43,USCGeocoder,62.4285,1,4.1,,,03,StreetSegmentInterpolation,Success,LOCATION_TYPE_STREET_ADDRESS,Meters,LinearInterpolation,2615.37243484776,LinearInterpolationAddressRange,StreetSegment,96.0059171597633,FeatureClassBased,ReturnAll,,AddressRangeInterpolation,,,1,37.7555960832433,-122.161294709986,Relaxed
4100 EASTLAKE AV,Oakland,CA,,44,USCGeocoder,62.5147,1,4.1,,,03,StreetSegmentInterpolation,Success,LOCATION_TYPE_STREET_ADDRESS,Meters,LinearInterpolation,2606.68178503145,LinearInterpolationAddressRange,StreetSegment,96.0059171597633,FeatureClassBased,ReturnAll,,AddressRangeInterpolation,,,1,37.7987040113483,-122.195457351333,Relaxed
83RD AV & OLIVE ST,Oakland,CA,,45,USCGeocoder,31.2441,1,4.1,,,11,CityCentroid,Success,LOCATION_TYPE_STREET_ADDRESS,Meters,ArealInterpolation,206369070.265232,ArealInterpolationGeometricCentroid,City,50,FeatureClassBased,ReturnAll,,CityCentroid,,,1,37.7710887807485,-122.224976664539,Relaxed;Soundex
5600 BUENA VISTA AV,Oakland,CA,,46,USCGeocoder,46.8757,1,4.1,,,03,StreetSegmentInterpolation,Success,LOCATION_TYPE_STREET_ADDRESS,Meters,LinearInterpolation,26728.1364708561,LinearInterpolationAddressRange,StreetSegment,96.0059171597633,FeatureClassBased,ReturnAll,,AddressRangeInterpolation,,,1,37.8487399475486,-122.238496521116,Relaxed
40TH ST CORRIDOR,Oakland,CA,,47,USCGeocoder,15.622,1,4.1,,,11,CityCentroid,Success,LOCATION_TYPE_STREET_ADDRESS,Meters,ArealInterpolation,206369070.265232,ArealInterpolationGeometricCentroid,City,50,FeatureClassBased,ReturnAll,,CityCentroid,,,1,37.7710887807485,-122.224976664539,Relaxed;Soundex
5800 FLEMING AV,Oakland,CA,,48,USCGeocoder,30.9881,1,4.1,,,03,StreetSegmentInterpolation,Success,LOCATION_TYPE_STREET_ADDRESS,Meters,LinearInterpolation,5883.49116458744,LinearInterpolationAddressRange,StreetSegment,96.0059171597633,FeatureClassBased,ReturnAll,,AddressRangeInterpolation,,,1,37.7730128919882,-122.190039702078,Relaxed
2300 24TH AV,Oakland,CA,,49,USCGeocoder,109.3791,1,4.1,,,03,StreetSegmentInterpolation,Success,LOCATION_TYPE_STREET_ADDRESS,Meters,LinearInterpolation,2147.94013636466,LinearInterpolationAddressRange,StreetSegment,96.0059171597633,FeatureClassBased,ReturnAll,,AddressRangeInterpolation,,,1,37.7890580803056,-122.228195094791,Relaxed
E 17TH ST & 61ST AV,Oakland,CA,,50,USCGeocoder,31.2206,1,4.1,,,11,CityCentroid,Success,LOCATION_TYPE_STREET_ADDRESS,Meters,ArealInterpolation,206369070.265232,ArealInterpolationGeometricCentroid,City,50,FeatureClassBased,ReturnAll,,CityCentroid,,,1,37.7710887807485,-122.224976664539,Relaxed;Soundex
3300 OCTAVIA ST,Oakland,CA,,51,USCGeocoder,31.2505,1,4.1,,,03,StreetSegmentInterpolation,Success,LOCATION_TYPE_STREET_ADDRESS,Meters,LinearInterpolation,5792.86187312333,LinearInterpolationAddressRange,StreetSegment,96.0059171597633,FeatureClassBased,ReturnAll,,AddressRangeInterpolation,,,1,37.7906275311353,-122.20374344419,Relaxed
1100 E 22ND ST,Oakland,CA,,52,USCGeocoder,78.0211,1,4.1,,,03,StreetSegmentInterpolation,Success,LOCATION_TYPE_STREET_ADDRESS,Meters,LinearInterpolation,2510.49699416896,LinearInterpolationAddressRange,StreetSegment,96.0059171597633,FeatureClassBased,ReturnAll,,AddressRangeInterpolation,,,1,37.796670760729,-122.241422106544,Relaxed
900 LONGRIDGE RD,Oakland,CA,,53,USCGeocoder,62.334,1,4.1,,,03,StreetSegmentInterpolation,Success,LOCATION_TYPE_STREET_ADDRESS,Meters,LinearInterpolation,6644.33718689345,LinearInterpolationAddressRange,StreetSegment,96.0059171597633,FeatureClassBased,ReturnAll,,AddressRangeInterpolation,,,1,37.8097565495139,-122.234242116143,Relaxed
6300 FENHAM ST,Oakland,CA,,54,USCGeocoder,46.8806,1,4.1,,,03,StreetSegmentInterpolation,Success,LOCATION_TYPE_STREET_ADDRESS,Meters,LinearInterpolation,3830.76291252486,LinearInterpolationAddressRange,StreetSegment,96.0059171597633,FeatureClassBased,ReturnAll,,AddressRangeInterpolation,,,1,37.7612323125756,-122.199200538974,Relaxed
1500 LEIMERT BLVD,Oakland,CA,,55,USCGeocoder,187.4916,1,4.1,,,00,AddressPoint,Success,LOCATION_TYPE_STREET_ADDRESS,Meters,ArealInterpolation,0,ArealInterpolationGeometricCentroid,Parcel,97.3372781065089,FeatureClassBased,ReturnAll,,AddressPoint,,,1,37.8115978,-122.2118396,Relaxed
5600 KEITH AV,Oakland,CA,,56,USCGeocoder,93.7523,1,4.1,,,11,CityCentroid,Success,LOCATION_TYPE_STREET_ADDRESS,Meters,ArealInterpolation,206369070.265232,ArealInterpolationGeometricCentroid,City,50,FeatureClassBased,ReturnAll,,CityCentroid,,,1,37.7710887807485,-122.224976664539,Relaxed;Soundex
3400 MORCOM AV,Oakland,CA,,57,USCGeocoder,31.177,1,4.1,,,03,StreetSegmentInterpolation,Success,LOCATION_TYPE_STREET_ADDRESS,Meters,LinearInterpolation,2411.73049043817,LinearInterpolationAddressRange,StreetSegment,96.0059171597633,FeatureClassBased,ReturnAll,,AddressRangeInterpolation,,,1,37.7826966932148,-122.191169439405,Relaxed
98TH AV & PIPPIN ST,Oakland,CA,,58,USCGeocoder,31.2571,1,4.1,,,11,CityCentroid,Success,LOCATION_TYPE_STREET_ADDRESS,Meters,ArealInterpolation,206369070.265232,ArealInterpolationGeometricCentroid,City,50,FeatureClassBased,ReturnAll,,CityCentroid,,,1,37.7710887807485,-122.224976664539,Relaxed;Soundex
3600 QUIGLEY ST,Oakland,CA,,59,USCGeocoder,187.5003,1,4.1,,,00,AddressPoint,Success,LOCATION_TYPE_STREET_ADDRESS,Meters,ArealInterpolation,0,ArealInterpolationGeometricCentroid,Parcel,97.3372781065089,FeatureClassBased,ReturnAll,,AddressPoint,,,1,37.7919324,-122.2012943,Relaxed
63RD ST & HERZOG ST,Oakland,CA,,60,USCGeocoder,31.2492,1,4.1,,,11,CityCentroid,Success,LOCATION_TYPE_STREET_ADDRESS,Meters,ArealInterpolation,206369070.265232,ArealInterpolationGeometricCentroid,City,50,FeatureClassBased,ReturnAll,,CityCentroid,,,1,37.7710887807485,-122.224976664539,Relaxed;Soundex
1400 TRESTLE GLEN RD,Oakland,CA,,61,USCGeocoder,62.5046,1,4.1,,,03,StreetSegmentInterpolation,Success,LOCATION_TYPE_STREET_ADDRESS,Meters,LinearInterpolation,8497.1408427048,LinearInterpolationAddressRange,StreetSegment,96.0059171597633,FeatureClassBased,ReturnAll,,AddressRangeInterpolation,,,1,37.8088487302633,-122.226868050713,Relaxed
6100 VIEW CREST DR,Oakland,CA,,62,USCGeocoder,31.2484,1,4.1,,,03,StreetSegmentInterpolation,Success,LOCATION_TYPE_STREET_ADDRESS,Meters,LinearInterpolation,1251.95077136718,LinearInterpolationAddressRange,StreetSegment,96.0059171597633,FeatureClassBased,ReturnAll,,AddressRangeInterpolation,,,1,37.7865442460427,-122.16640866485,Relaxed;Soundex
EUCLID AV & VAN BUREN AV,Oakland,CA,,63,USCGeocoder,31.2819,1,4.1,,,11,CityCentroid,Success,LOCATION_TYPE_STREET_ADDRESS,Meters,ArealInterpolation,206369070.265232,ArealInterpolationGeometricCentroid,City,50,FeatureClassBased,ReturnAll,,CityCentroid,,,1,37.7710887807485,-122.224976664539,Relaxed;Soundex
3900 HOWE ST,Oakland,CA,,64,USCGeocoder,62.4328,1,4.1,,,03,StreetSegmentInterpolation,Success,LOCATION_TYPE_STREET_ADDRESS,Meters,LinearInterpolation,1039.9615322277,LinearInterpolationAddressRange,StreetSegment,96.0059171597633,FeatureClassBased,ReturnAll,,AddressRangeInterpolation,,,1,37.8260601287211,-122.254463979618,Relaxed
3800 LINCOLN AV,Oakland,CA,,65,USCGeocoder,46.9527,1,4.1,,,03,StreetSegmentInterpolation,Success,LOCATION_TYPE_STREET_ADDRESS,Meters,LinearInterpolation,2255.92643832043,LinearInterpolationAddressRange,StreetSegment,96.0059171597633,FeatureClassBased,ReturnAll,,AddressRangeInterpolation,,,1,37.8027980773371,-122.210948238601,Relaxed
7900 WINTHROPE ST,Oakland,CA,,66,USCGeocoder,234.3986,1,4.1,,,00,AddressPoint,Success,LOCATION_TYPE_STREET_ADDRESS,Meters,ArealInterpolation,0,ArealInterpolationGeometricCentroid,Parcel,97.3372781065089,FeatureClassBased,ReturnAll,,AddressPoint,,,1,37.7705413,-122.1577353,Relaxed
4200 OAK HILL RD,Oakland,CA,,67,USCGeocoder,62.4975,1,4.1,,,03,StreetSegmentInterpolation,Success,LOCATION_TYPE_STREET_ADDRESS,Meters,LinearInterpolation,8065.31370651443,LinearInterpolationAddressRange,StreetSegment,96.0059171597633,FeatureClassBased,ReturnAll,,AddressRangeInterpolation,,,1,37.7630654997894,-122.141111436375,Relaxed
0 BUCKEYE AV,Oakland,CA,,68,USCGeocoder,140.6357,1,4.1,,,11,CityCentroid,Success,LOCATION_TYPE_STREET_ADDRESS,Meters,ArealInterpolation,206369070.265232,ArealInterpolationGeometricCentroid,City,50,FeatureClassBased,ReturnAll,,CityCentroid,,,1,37.7710887807485,-122.224976664539,Relaxed;Soundex
8900 A ST,Oakland,CA,,69,USCGeocoder,46.8729,1,4.1,,,03,StreetSegmentInterpolation,Success,LOCATION_TYPE_STREET_ADDRESS,Meters,LinearInterpolation,2014.95487621007,LinearInterpolationAddressRange,StreetSegment,96.0059171597633,FeatureClassBased,ReturnAll,,AddressRangeInterpolation,,,1,37.7497158850768,-122.176770869602,Relaxed
3500 BOSTON AV,Oakland,CA,,70,USCGeocoder,31.2644,1,4.1,,,03,StreetSegmentInterpolation,Success,LOCATION_TYPE_STREET_ADDRESS,Meters,LinearInterpolation,3205.72510227421,LinearInterpolationAddressRange,StreetSegment,96.0059171597633,FeatureClassBased,ReturnAll,,AddressRangeInterpolation,,,1,37.7994888831334,-122.212756869637,Relaxed
4700 MARKET ST,Oakland,CA,,71,USCGeocoder,187.5384,1,4.1,,,00,AddressPoint,Success,LOCATION_TYPE_STREET_ADDRESS,Meters,ArealInterpolation,0,ArealInterpolationGeometricCentroid,Parcel,97.3372781065089,FeatureClassBased,ReturnAll,,AddressPoint,,,1,37.8361116,-122.2729909,Relaxed
2700 TRUMAN AV,Oakland,CA,,72,USCGeocoder,203.1247,1,4.1,,,00,AddressPoint,Success,LOCATION_TYPE_STREET_ADDRESS,Meters,ArealInterpolation,0,ArealInterpolationGeometricCentroid,Parcel,97.3372781065089,FeatureClassBased,ReturnAll,,AddressPoint,,,1,37.7467316,-122.1523018,Relaxed
45TH AV & SAN LEANDRO ST,Oakland,CA,,73,USCGeocoder,15.5838,1,4.1,,,11,CityCentroid,Success,LOCATION_TYPE_STREET_ADDRESS,Meters,ArealInterpolation,206369070.265232,ArealInterpolationGeometricCentroid,City,50,FeatureClassBased,ReturnAll,,CityCentroid,,,1,37.7710887807485,-122.224976664539,Relaxed;Soundex
98TH AV & THERMAL ST,Oakland,CA,,74,USCGeocoder,31.3216,1,4.1,,,11,CityCentroid,Success,LOCATION_TYPE_STREET_ADDRESS,Meters,ArealInterpolation,206369070.265232,ArealInterpolationGeometricCentroid,City,50,FeatureClassBased,ReturnAll,,CityCentroid,,,1,37.7710887807485,-122.224976664539,Relaxed;Soundex
55TH AV & WALNUT ST,Oakland,CA,,75,USCGeocoder,15.6971,1,4.1,,,11,CityCentroid,Success,LOCATION_TYPE_STREET_ADDRESS,Meters,ArealInterpolation,206369070.265232,ArealInterpolationGeometricCentroid,City,50,FeatureClassBased,ReturnAll,,CityCentroid,,,1,37.7710887807485,-122.224976664539,Relaxed;Soundex
4900 COCHRANE AV,Oakland,CA,,76,USCGeocoder,203.2032,1,4.1,,,00,AddressPoint,Success,LOCATION_TYPE_STREET_ADDRESS,Meters,ArealInterpolation,0,ArealInterpolationGeometricCentroid,Parcel,97.3372781065089,FeatureClassBased,ReturnAll,,AddressPoint,,,1,37.8406168,-122.2263637,Relaxed
4000 CANON AV,Oakland,CA,,77,USCGeocoder,62.47,1,4.1,,,03,StreetSegmentInterpolation,Success,LOCATION_TYPE_STREET_ADDRESS,Meters,LinearInterpolation,14189.5632297765,LinearInterpolationAddressRange,StreetSegment,96.0059171597633,FeatureClassBased,ReturnAll,,AddressRangeInterpolation,,,1,37.8044692225114,-122.217226108603,Relaxed
19TH ST & ALICE ST,Oakland,CA,,78,USCGeocoder,31.2415,1,4.1,,,11,CityCentroid,Success,LOCATION_TYPE_STREET_ADDRESS,Meters,ArealInterpolation,206369070.265232,ArealInterpolationGeometricCentroid,City,50,FeatureClassBased,ReturnAll,,CityCentroid,,,1,37.7710887807485,-122.224976664539,Relaxed;Soundex
9600 CORAL RD,Oakland,CA,,79,USCGeocoder,202.9978,1,4.1,,,00,AddressPoint,Success,LOCATION_TYPE_STREET_ADDRESS,Meters,ArealInterpolation,0,ArealInterpolationGeometricCentroid,Parcel,97.3372781065089,FeatureClassBased,ReturnAll,,AddressPoint,,,1,37.733336,-122.1905383,Relaxed
FONTAINE CT & MOUNTAIN BLVD,Oakland,CA,,80,USCGeocoder,109.3775,1,4.1,,,11,CityCentroid,Success,LOCATION_TYPE_STREET_ADDRESS,Meters,ArealInterpolation,206369070.265232,ArealInterpolationGeometricCentroid,City,50,FeatureClassBased,ReturnAll,,CityCentroid,,,1,37.7710887807485,-122.224976664539,Relaxed;Soundex
5400 LOCKSLEY AV,Oakland,CA,,81,USCGeocoder,62.4912,1,4.1,,,03,StreetSegmentInterpolation,Success,LOCATION_TYPE_STREET_ADDRESS,Meters,LinearInterpolation,5740.24777851393,LinearInterpolationAddressRange,StreetSegment,96.0059171597633,FeatureClassBased,ReturnAll,,AddressRangeInterpolation,,,1,37.8418627200251,-122.255066692592,Relaxed
1200 POWELL ST,Oakland,CA,,82,USCGeocoder,265.6219,1,4.1,,,00,AddressPoint,Success,LOCATION_TYPE_STREET_ADDRESS,Meters,ArealInterpolation,0,ArealInterpolationGeometricCentroid,Parcel,97.3372781065089,FeatureClassBased,ReturnAll,,AddressPoint,,,1,37.8405739,-122.2850516,Relaxed
3700 LAKESHORE AV,Oakland,CA,,83,USCGeocoder,265.4484,1,4.1,,,00,AddressPoint,Success,LOCATION_TYPE_STREET_ADDRESS,Meters,ArealInterpolation,0,ArealInterpolationGeometricCentroid,Parcel,97.3372781065089,FeatureClassBased,ReturnAll,,AddressPoint,,,1,37.8130131,-122.2401403,Relaxed
400 58TH ST,Oakland,CA,,84,USCGeocoder,109.3849,1,4.1,,,03,StreetSegmentInterpolation,Success,LOCATION_TYPE_STREET_ADDRESS,Meters,LinearInterpolation,1578.49806503952,LinearInterpolationAddressRange,StreetSegment,96.0059171597633,FeatureClassBased,ReturnAll,,AddressRangeInterpolation,,,1,37.8449011791713,-122.258122310978,Relaxed
900 45TH AV,Oakland,CA,,85,USCGeocoder,140.5002,1,4.1,,,03,StreetSegmentInterpolation,Success,LOCATION_TYPE_STREET_ADDRESS,Meters,LinearInterpolation,2694.6220066417,LinearInterpolationAddressRange,StreetSegment,96.0059171597633,FeatureClassBased,ReturnAll,,AddressRangeInterpolation,,,1,37.7689435134628,-122.216113143454,Relaxed
17TH ST & PERALTA ST,Oakland,CA,,86,USCGeocoder,31.2484,1,4.1,,,11,CityCentroid,Success,LOCATION_TYPE_STREET_ADDRESS,Meters,ArealInterpolation,206369070.265232,ArealInterpolationGeometricCentroid,City,50,FeatureClassBased,ReturnAll,,CityCentroid,,,1,37.7710887807485,-122.224976664539,Relaxed;Soundex
15TH ST & MANDELA PKWY,Oakland,CA,,87,USCGeocoder,15.6208,1,4.1,,,11,CityCentroid,Success,LOCATION_TYPE_STREET_ADDRESS,Meters,ArealInterpolation,206369070.265232,ArealInterpolationGeometricCentroid,City,50,FeatureClassBased,ReturnAll,,CityCentroid,,,1,37.7710887807485,-122.224976664539,Relaxed;Soundex
10700 STELLA ST,Oakland,CA,,88,USCGeocoder,218.6379,1,4.1,,,00,AddressPoint,Success,LOCATION_TYPE_STREET_ADDRESS,Meters,ArealInterpolation,0,ArealInterpolationGeometricCentroid,Parcel,97.3372781065089,FeatureClassBased,ReturnAll,,AddressPoint,,,1,37.7472034,-122.1424685,Relaxed
4200 AGUA VISTA ST,Oakland,CA,,89,USCGeocoder,140.6151,1,4.1,,,03,StreetSegmentInterpolation,Success,LOCATION_TYPE_STREET_ADDRESS,Meters,LinearInterpolation,4692.98803661019,LinearInterpolationAddressRange,StreetSegment,92.2020287404903,FeatureClassBased,ReturnAll,,AddressRangeInterpolation,,,1,37.7811082469665,-122.206726268401,Relaxed;Soundex
3600 MALCOLM AV,Oakland,CA,,90,USCGeocoder,171.7594,1,4.1,,,00,AddressPoint,Success,LOCATION_TYPE_STREET_ADDRESS,Meters,ArealInterpolation,0,ArealInterpolationGeometricCentroid,Parcel,97.3372781065089,FeatureClassBased,ReturnAll,,AddressPoint,,,1,37.7462988,-122.1393168,Relaxed
7100 KRAUSE AV,Oakland,CA,,91,USCGeocoder,46.8689,1,4.1,,,03,StreetSegmentInterpolation,Success,LOCATION_TYPE_STREET_ADDRESS,Meters,LinearInterpolation,6963.7973113521,LinearInterpolationAddressRange,StreetSegment,96.0059171597633,FeatureClassBased,ReturnAll,,AddressRangeInterpolation,,,1,37.7658886807691,-122.179353958114,Relaxed
3700 LOMA VISTA AV,Oakland,CA,,92,USCGeocoder,187.4921,1,4.1,,,00,AddressPoint,Success,LOCATION_TYPE_STREET_ADDRESS,Meters,ArealInterpolation,0,ArealInterpolationGeometricCentroid,Parcel,97.3372781065089,FeatureClassBased,ReturnAll,,AddressPoint,,,1,37.7930932,-122.1977622,Relaxed
9200 WALNUT ST,Oakland,CA,,93,USCGeocoder,46.9103,1,4.1,,,03,StreetSegmentInterpolation,Success,LOCATION_TYPE_STREET_ADDRESS,Meters,LinearInterpolation,4718.85033049341,LinearInterpolationAddressRange,StreetSegment,96.0059171597633,FeatureClassBased,ReturnAll,,AddressRangeInterpolation,,,1,37.7497932969578,-122.171485018346,Relaxed
9100 DATE ST,Oakland,CA,,94,USCGeocoder,62.4775,1,4.1,,,03,StreetSegmentInterpolation,Success,LOCATION_TYPE_STREET_ADDRESS,Meters,LinearInterpolation,2554.45408205129,LinearInterpolationAddressRange,StreetSegment,96.0059171597633,FeatureClassBased,ReturnAll,,AddressRangeInterpolation,,,1,37.7383956654785,-122.192325951442,Relaxed
7700 SURREY LN,Oakland,CA,,95,USCGeocoder,93.7364,1,4.1,,,03,StreetSegmentInterpolation,Success,LOCATION_TYPE_STREET_ADDRESS,Meters,LinearInterpolation,9606.92912585801,LinearInterpolationAddressRange,StreetSegment,96.0059171597633,FeatureClassBased,ReturnAll,,AddressRangeInterpolation,,,1,37.7783788417886,-122.140891341979,Relaxed
0 HEGENBERGER PL,Oakland,CA,,96,USCGeocoder,109.4138,1,4.1,,,11,CityCentroid,Success,LOCATION_TYPE_STREET_ADDRESS,Meters,ArealInterpolation,206369070.265232,ArealInterpolationGeometricCentroid,City,50,FeatureClassBased,ReturnAll,,CityCentroid,,,1,37.7710887807485,-122.224976664539,Relaxed;Soundex
51ST ST & CLARKE ST,Oakland,CA,,97,USCGeocoder,31.2537,1,4.1,,,11,CityCentroid,Success,LOCATION_TYPE_STREET_ADDRESS,Meters,ArealInterpolation,206369070.265232,ArealInterpolationGeometricCentroid,City,50,FeatureClassBased,ReturnAll,,CityCentroid,,,1,37.7710887807485,-122.224976664539,Relaxed;Soundex
102ND AV & BIRCH ST,Oakland,CA,,98,USCGeocoder,31.2493,1,4.1,,,11,CityCentroid,Success,LOCATION_TYPE_STREET_ADDRESS,Meters,ArealInterpolation,206369070.265232,ArealInterpolationGeometricCentroid,City,50,FeatureClassBased,ReturnAll,,CityCentroid,,,1,37.7710887807485,-122.224976664539,Relaxed;Soundex
1900 11TH AV,Oakland,CA,,99,USCGeocoder,218.9175,1,4.1,,,03,StreetSegmentInterpolation,Success,LOCATION_TYPE_STREET_ADDRESS,Meters,LinearInterpolation,2514.61020069523,LinearInterpolationAddressRange,StreetSegment,96.0059171597633,FeatureClassBased,ReturnAll,,AddressRangeInterpolation,,,1,37.7945626278369,-122.244221427359,Relaxed
AREA 3,Oakland,CA,,100,USCGeocoder,15.7847,1,4.1,,,11,CityCentroid,Success,LOCATION_TYPE_STREET_ADDRESS,Meters,ArealInterpolation,206369070.265232,ArealInterpolationGeometricCentroid,City,50,FeatureClassBased,ReturnAll,,CityCentroid,,,1,37.7710887807485,-122.224976664539,Relaxed;Soundex
87TH AV & G ST,Oakland,CA,,101,USCGeocoder,31.2651,1,4.1,,,11,CityCentroid,Success,LOCATION_TYPE_STREET_ADDRESS,Meters,ArealInterpolation,206369070.265232,ArealInterpolationGeometricCentroid,City,50,FeatureClassBased,ReturnAll,,CityCentroid,,,1,37.7710887807485,-122.224976664539,Relaxed;Soundex
6000 ASPINWALL RD,Oakland,CA,,102,USCGeocoder,62.5317,1,4.1,,,03,StreetSegmentInterpolation,Success,LOCATION_TYPE_STREET_ADDRESS,Meters,LinearInterpolation,18204.6886361134,LinearInterpolationAddressRange,StreetSegment,96.0059171597633,FeatureClassBased,ReturnAll,,AddressRangeInterpolation,,,1,37.8364462353929,-122.208309298837,Relaxed
4900 DAISY ST,Oakland,CA,,103,USCGeocoder,187.3966,1,4.1,,,00,AddressPoint,Success,LOCATION_TYPE_STREET_ADDRESS,Meters,ArealInterpolation,0,ArealInterpolationGeometricCentroid,Parcel,97.3372781065089,FeatureClassBased,ReturnAll,,AddressPoint,,,1,37.7845788,-122.1837568,Relaxed
8400 B ST,Oakland,CA,,104,USCGeocoder,62.5428,1,4.1,,,03,StreetSegmentInterpolation,Success,LOCATION_TYPE_STREET_ADDRESS,Meters,LinearInterpolation,2204.08120505046,LinearInterpolationAddressRange,StreetSegment,96.0059171597633,FeatureClassBased,ReturnAll,,AddressRangeInterpolation,,,1,37.7525471750488,-122.181036017229,Relaxed
6200 VIRGO RD,Oakland,CA,,105,USCGeocoder,62.6144,1,4.1,,,03,StreetSegmentInterpolation,Success,LOCATION_TYPE_STREET_ADDRESS,Meters,LinearInterpolation,6980.71797562297,LinearInterpolationAddressRange,StreetSegment,96.0059171597633,FeatureClassBased,ReturnAll,,AddressRangeInterpolation,,,1,37.8414286390514,-122.215250280269,Relaxed
16TH ST & BRUSH ST,Oakland,CA,,106,USCGeocoder,30.9801,1,4.1,,,11,CityCentroid,Success,LOCATION_TYPE_STREET_ADDRESS,Meters,ArealInterpolation,206369070.265232,ArealInterpolationGeometricCentroid,City,50,FeatureClassBased,ReturnAll,,CityCentroid,,,1,37.7710887807485,-122.224976664539,Relaxed;Soundex
1100 CENTER ST,Oakland,CA,,107,USCGeocoder,109.3802,1,4.1,,,03,StreetSegmentInterpolation,Success,LOCATION_TYPE_STREET_ADDRESS,Meters,LinearInterpolation,2002.05168829719,LinearInterpolationAddressRange,StreetSegment,96.0059171597633,FeatureClassBased,ReturnAll,,AddressRangeInterpolation,,,1,37.8086665318049,-122.293691464093,Relaxed
5700 VICENTE ST,Oakland,CA,,108,USCGeocoder,62.597,1,4.1,,,03,StreetSegmentInterpolation,Success,LOCATION_TYPE_STREET_ADDRESS,Meters,LinearInterpolation,3930.44287632592,LinearInterpolationAddressRange,StreetSegment,96.0059171597633,FeatureClassBased,ReturnAll,,AddressRangeInterpolation,,,1,37.8428371988576,-122.260151586742,Relaxed
10300 PIPPIN ST,Oakland,CA,,109,USCGeocoder,187.4967,1,4.1,,,00,AddressPoint,Success,LOCATION_TYPE_STREET_ADDRESS,Meters,ArealInterpolation,0,ArealInterpolationGeometricCentroid,Parcel,97.3372781065089,FeatureClassBased,ReturnAll,,AddressPoint,,,1,37.7363,-122.1770868,Relaxed
1000 GRAND VIEW DR,Oakland,CA,,110,USCGeocoder,124.9788,1,4.1,,,03,StreetSegmentInterpolation,Success,LOCATION_TYPE_STREET_ADDRESS,Meters,LinearInterpolation,10274.7237490383,LinearInterpolationAddressRange,StreetSegment,96.0059171597633,FeatureClassBased,ReturnAll,,AddressRangeInterpolation,,,1,37.857311844969,-122.233999978694,Relaxed
19TH AV & E 26TH ST,Oakland,CA,,111,USCGeocoder,31.2407,1,4.1,,,11,CityCentroid,Success,LOCATION_TYPE_STREET_ADDRESS,Meters,ArealInterpolation,206369070.265232,ArealInterpolationGeometricCentroid,City,50,FeatureClassBased,ReturnAll,,CityCentroid,,,1,37.7710887807485,-122.224976664539,Relaxed;Soundex
2600 E 15TH ST,Oakland,CA,,112,USCGeocoder,249.9472,1,4.1,,,03,StreetSegmentInterpolation,Success,LOCATION_TYPE_STREET_ADDRESS,Meters,LinearInterpolation,1506.63780079084,LinearInterpolationAddressRange,StreetSegment,96.0059171597633,FeatureClassBased,ReturnAll,,AddressRangeInterpolation,,,1,37.7823271845039,-122.231775427003,Relaxed
4600 MARTIN LUTHER KING JR WY,Oakland,CA,,113,USCGeocoder,62.4897,1,4.1,,,03,StreetSegmentInterpolation,Success,LOCATION_TYPE_STREET_ADDRESS,Meters,LinearInterpolation,964.51136752218,LinearInterpolationAddressRange,StreetSegment,92.6775147928994,FeatureClassBased,ReturnAll,,AddressRangeInterpolation,,,1,37.8342444117689,-122.267209311319,Relaxed;Soundex
E 10TH ST & 9TH AV,Oakland,CA,,114,USCGeocoder,31.3209,1,4.1,,,11,CityCentroid,Success,LOCATION_TYPE_STREET_ADDRESS,Meters,ArealInterpolation,206369070.265232,ArealInterpolationGeometricCentroid,City,50,FeatureClassBased,ReturnAll,,CityCentroid,,,1,37.7710887807485,-122.224976664539,Relaxed;Soundex
13500 SKYLINE BLVD,Oakland,CA,,115,USCGeocoder,250.1059,1,4.1,,,00,AddressPoint,Success,LOCATION_TYPE_STREET_ADDRESS,Meters,ArealInterpolation,0,ArealInterpolationGeometricCentroid,Parcel,97.3372781065089,FeatureClassBased,ReturnAll,,AddressPoint,,,1,37.7859239,-122.1439031,Relaxed
6200 MANOA ST,Oakland,CA,,116,USCGeocoder,234.3718,1,4.1,,,00,AddressPoint,Success,LOCATION_TYPE_STREET_ADDRESS,Meters,ArealInterpolation,0,ArealInterpolationGeometricCentroid,Parcel,97.3372781065089,FeatureClassBased,ReturnAll,,AddressPoint,,,1,37.8503444,-122.2494792,Relaxed
3500 HARRISON ST,Oakland,CA,,117,USCGeocoder,62.4962,1,4.1,,,03,StreetSegmentInterpolation,Success,LOCATION_TYPE_STREET_ADDRESS,Meters,LinearInterpolation,2598.19275328703,LinearInterpolationAddressRange,StreetSegment,96.0059171597633,FeatureClassBased,ReturnAll,,AddressRangeInterpolation,,,1,37.8197613635414,-122.254077269411,Relaxed
5400 BROADWAY,Oakland,CA,,118,USCGeocoder,187.4996,1,4.1,,,00,AddressPoint,Success,LOCATION_TYPE_STREET_ADDRESS,Meters,ArealInterpolation,0,ArealInterpolationGeometricCentroid,Parcel,97.3372781065089,FeatureClassBased,ReturnAll,,AddressPoint,,,1,37.8385772,-122.2465883,Relaxed
1600 CHANDLER ST,Oakland,CA,,119,USCGeocoder,140.6467,1,4.1,,,11,CityCentroid,Success,LOCATION_TYPE_STREET_ADDRESS,Meters,ArealInterpolation,206369070.265232,ArealInterpolationGeometricCentroid,City,50,FeatureClassBased,ReturnAll,,CityCentroid,,,1,37.7710887807485,-122.224976664539,Relaxed;Soundex
74TH AV & BANCROFT AV,Oakland,CA,,120,USCGeocoder,31.2591,1,4.1,,,11,CityCentroid,Success,LOCATION_TYPE_STREET_ADDRESS,Meters,ArealInterpolation,206369070.265232,ArealInterpolationGeometricCentroid,City,50,FeatureClassBased,ReturnAll,,CityCentroid,,,1,37.7710887807485,-122.224976664539,Relaxed;Soundex
100TH AV & B ST,Oakland,CA,,121,USCGeocoder,31.235,1,4.1,,,11,CityCentroid,Success,LOCATION_TYPE_STREET_ADDRESS,Meters,ArealInterpolation,206369070.265232,ArealInterpolationGeometricCentroid,City,50,FeatureClassBased,ReturnAll,,CityCentroid,,,1,37.7710887807485,-122.224976664539,Relaxed;Soundex
0 EASTMONT TOWN CENTER,Oakland,CA,,122,USCGeocoder,124.9887,1,4.1,,,11,CityCentroid,Success,LOCATION_TYPE_STREET_ADDRESS,Meters,ArealInterpolation,206369070.265232,ArealInterpolationGeometricCentroid,City,50,FeatureClassBased,ReturnAll,,CityCentroid,,,1,37.7710887807485,-122.224976664539,Relaxed;Soundex
100TH AV & SAN LEANDRO ST,Oakland,CA,,123,USCGeocoder,31.2345,1,4.1,,,11,CityCentroid,Success,LOCATION_TYPE_STREET_ADDRESS,Meters,ArealInterpolation,206369070.265232,ArealInterpolationGeometricCentroid,City,50,FeatureClassBased,ReturnAll,,CityCentroid,,,1,37.7710887807485,-122.224976664539,Relaxed;Soundex
60TH AV & BRANN ST,Oakland,CA,,124,USCGeocoder,31.2284,1,4.1,,,11,CityCentroid,Success,LOCATION_TYPE_STREET_ADDRESS,Meters,ArealInterpolation,206369070.265232,ArealInterpolationGeometricCentroid,City,50,FeatureClassBased,ReturnAll,,CityCentroid,,,1,37.7710887807485,-122.224976664539,Relaxed;Soundex
SYCAMORE ST & WEST ST,Oakland,CA,,125,USCGeocoder,31.2412,1,4.1,,,11,CityCentroid,Success,LOCATION_TYPE_STREET_ADDRESS,Meters,ArealInterpolation,206369070.265232,ArealInterpolationGeometricCentroid,City,50,FeatureClassBased,ReturnAll,,CityCentroid,,,1,37.7710887807485,-122.224976664539,Relaxed;Soundex
6600 HERZOG ST,Oakland,CA,,126,USCGeocoder,46.8494,1,4.1,,,03,StreetSegmentInterpolation,Success,LOCATION_TYPE_STREET_ADDRESS,Meters,LinearInterpolation,1774.88274928462,LinearInterpolationAddressRange,StreetSegment,96.0059171597633,FeatureClassBased,ReturnAll,,AddressRangeInterpolation,,,1,37.8492499614446,-122.283669547781,Relaxed
10400 BYRON AV,Oakland,CA,,127,USCGeocoder,203.2098,1,4.1,,,00,AddressPoint,Success,LOCATION_TYPE_STREET_ADDRESS,Meters,ArealInterpolation,0,ArealInterpolationGeometricCentroid,Parcel,97.3372781065089,FeatureClassBased,ReturnAll,,AddressPoint,,,1,37.7439329,-122.1541301,Relaxed
1100 HOLLYWOOD AV,Oakland,CA,,128,USCGeocoder,187.5254,1,4.1,,,00,AddressPoint,Success,LOCATION_TYPE_STREET_ADDRESS,Meters,ArealInterpolation,0,ArealInterpolationGeometricCentroid,Parcel,97.3372781065089,FeatureClassBased,ReturnAll,,AddressPoint,,,1,37.8124853,-122.2174714,Relaxed
E 12TH ST & 2ND AV,Oakland,CA,,129,USCGeocoder,31.2727,1,4.1,,,11,CityCentroid,Success,LOCATION_TYPE_STREET_ADDRESS,Meters,ArealInterpolation,206369070.265232,ArealInterpolationGeometricCentroid,City,50,FeatureClassBased,ReturnAll,,CityCentroid,,,1,37.7710887807485,-122.224976664539,Relaxed;Soundex
E 22ND ST & 9TH AV,Oakland,CA,,130,USCGeocoder,31.2476,1,4.1,,,11,CityCentroid,Success,LOCATION_TYPE_STREET_ADDRESS,Meters,ArealInterpolation,206369070.265232,ArealInterpolationGeometricCentroid,City,50,FeatureClassBased,ReturnAll,,CityCentroid,,,1,37.7710887807485,-122.224976664539,Relaxed;Soundex
6800 WILTON DR,Oakland,CA,,131,USCGeocoder,218.7547,1,4.1,,,00,AddressPoint,Success,LOCATION_TYPE_STREET_ADDRESS,Meters,ArealInterpolation,0,ArealInterpolationGeometricCentroid,Parcel,97.3372781065089,FeatureClassBased,ReturnAll,,AddressPoint,,,1,37.8252848,-122.1859034,Relaxed
10200 LONGFELLOW AV,Oakland,CA,,132,USCGeocoder,62.4903,1,4.1,,,03,StreetSegmentInterpolation,Success,LOCATION_TYPE_STREET_ADDRESS,Meters,LinearInterpolation,3986.87638145126,LinearInterpolationAddressRange,StreetSegment,96.0059171597633,FeatureClassBased,ReturnAll,,AddressRangeInterpolation,,,1,37.7445363722692,-122.15699957007,Relaxed
1700 SAUSAL ST,Oakland,CA,,133,USCGeocoder,109.3793,1,4.1,,,03,StreetSegmentInterpolation,Success,LOCATION_TYPE_STREET_ADDRESS,Meters,LinearInterpolation,2329.13351232698,LinearInterpolationAddressRange,StreetSegment,96.0059171597633,FeatureClassBased,ReturnAll,,AddressRangeInterpolation,,,1,37.798955151476,-122.221091198769,Relaxed
45TH ST & LINDEN ST,Oakland,CA,,134,USCGeocoder,31.2852,1,4.1,,,11,CityCentroid,Success,LOCATION_TYPE_STREET_ADDRESS,Meters,ArealInterpolation,206369070.265232,ArealInterpolationGeometricCentroid,City,50,FeatureClassBased,ReturnAll,,CityCentroid,,,1,37.7710887807485,-122.224976664539,Relaxed;Soundex
EL CENTRO AV & PARK BLVD,Oakland,CA,,135,USCGeocoder,31.1173,1,4.1,,,11,CityCentroid,Success,LOCATION_TYPE_STREET_ADDRESS,Meters,ArealInterpolation,206369070.265232,ArealInterpolationGeometricCentroid,City,50,FeatureClassBased,ReturnAll,,CityCentroid,,,1,37.7710887807485,-122.224976664539,Relaxed;Soundex
3500 BRIGHTON AV,Oakland,CA,,136,USCGeocoder,46.8752,1,4.1,,,03,StreetSegmentInterpolation,Success,LOCATION_TYPE_STREET_ADDRESS,Meters,LinearInterpolation,3178.4770218418,LinearInterpolationAddressRange,StreetSegment,96.0059171597633,FeatureClassBased,ReturnAll,,AddressRangeInterpolation,,,1,37.8011665067773,-122.22680669513,Relaxed
80TH AV & B ST,Oakland,CA,,137,USCGeocoder,31.397,1,4.1,,,11,CityCentroid,Success,LOCATION_TYPE_STREET_ADDRESS,Meters,ArealInterpolation,206369070.265232,ArealInterpolationGeometricCentroid,City,50,FeatureClassBased,ReturnAll,,CityCentroid,,,1,37.7710887807485,-122.224976664539,Relaxed;Soundex
5400 BACON RD,Oakland,CA,,138,USCGeocoder,78.114,1,4.1,,,03,StreetSegmentInterpolation,Success,LOCATION_TYPE_STREET_ADDRESS,Meters,LinearInterpolation,61461.059882151,LinearInterpolationAddressRange,StreetSegment,96.0059171597633,FeatureClassBased,ReturnAll,,AddressRangeInterpolation,,,1,37.7927758215437,-122.163888872958,Relaxed
2200 25TH AV,Oakland,CA,,139,USCGeocoder,250.0294,1,4.1,,,00,AddressPoint,Success,LOCATION_TYPE_STREET_ADDRESS,Meters,ArealInterpolation,0,ArealInterpolationGeometricCentroid,Parcel,97.3372781065089,FeatureClassBased,ReturnAll,,AddressPoint,,,1,37.7873736,-122.2270998,Relaxed
REDWOOD RD & NB S13,Oakland,CA,,140,USCGeocoder,31.0866,1,4.1,,,11,CityCentroid,Success,LOCATION_TYPE_STREET_ADDRESS,Meters,ArealInterpolation,206369070.265232,ArealInterpolationGeometricCentroid,City,50,FeatureClassBased,ReturnAll,,CityCentroid,,,1,37.7710887807485,-122.224976664539,Relaxed;Soundex
4000 MIDVALE AV,Oakland,CA,,141,USCGeocoder,187.5243,1,4.1,,,00,AddressPoint,Success,LOCATION_TYPE_STREET_ADDRESS,Meters,ArealInterpolation,0,ArealInterpolationGeometricCentroid,Parcel,97.3372781065089,FeatureClassBased,ReturnAll,,AddressPoint,,,1,37.7972553,-122.1957833,Relaxed
89TH AV & HILLSIDE ST,Oakland,CA,,142,USCGeocoder,15.7219,1,4.1,,,11,CityCentroid,Success,LOCATION_TYPE_STREET_ADDRESS,Meters,ArealInterpolation,206369070.265232,ArealInterpolationGeometricCentroid,City,50,FeatureClassBased,ReturnAll,,CityCentroid,,,1,37.7710887807485,-122.224976664539,Relaxed;Soundex
2600 21ST AV,Oakland,CA,,143,USCGeocoder,109.347,1,4.1,,,03,StreetSegmentInterpolation,Success,LOCATION_TYPE_STREET_ADDRESS,Meters,LinearInterpolation,2386.79399696412,LinearInterpolationAddressRange,StreetSegment,96.0059171597633,FeatureClassBased,ReturnAll,,AddressRangeInterpolation,,,1,37.7938961706203,-122.230433883852,Relaxed
600 BROADWAY,Oakland,CA,,144,USCGeocoder,93.7472,1,4.1,,,03,StreetSegmentInterpolation,Success,LOCATION_TYPE_STREET_ADDRESS,Meters,LinearInterpolation,2136.08284154721,LinearInterpolationAddressRange,StreetSegment,96.0059171597633,FeatureClassBased,ReturnAll,,AddressRangeInterpolation,,,1,37.7987852009652,-122.274680841213,Relaxed
100 COVINGTON ST,Oakland,CA,,145,USCGeocoder,171.8641,1,4.1,,,00,AddressPoint,Success,LOCATION_TYPE_STREET_ADDRESS,Meters,ArealInterpolation,0,ArealInterpolationGeometricCentroid,Parcel,97.3372781065089,FeatureClassBased,ReturnAll,,AddressPoint,,,1,37.7367019,-122.13851,Relaxed
3000 E 22ND ST,Oakland,CA,,146,USCGeocoder,218.7462,1,4.1,,,00,AddressPoint,Success,LOCATION_TYPE_STREET_ADDRESS,Meters,ArealInterpolation,0,ArealInterpolationGeometricCentroid,Parcel,97.3372781065089,FeatureClassBased,ReturnAll,,AddressPoint,,,1,37.7854249,-122.2229963,Relaxed
AREA 2,Oakland,CA,,147,USCGeocoder,31.2079,1,4.1,,,11,CityCentroid,Success,LOCATION_TYPE_STREET_ADDRESS,Meters,ArealInterpolation,206369070.265232,ArealInterpolationGeometricCentroid,City,50,FeatureClassBased,ReturnAll,,CityCentroid,,,1,37.7710887807485,-122.224976664539,Relaxed;Soundex
10300 BIRCH ST,Oakland,CA,,148,USCGeocoder,109.3806,1,4.1,,,03,StreetSegmentInterpolation,Success,LOCATION_TYPE_STREET_ADDRESS,Meters,LinearInterpolation,1914.20596932853,LinearInterpolationAddressRange,StreetSegment,96.0059171597633,FeatureClassBased,ReturnAll,,AddressRangeInterpolation,,,1,37.7422836514927,-122.162295492997,Relaxed
4700 E 12TH ST,Oakland,CA,,149,USCGeocoder,343.7467,1,4.1,,,00,AddressPoint,Success,LOCATION_TYPE_STREET_ADDRESS,Meters,ArealInterpolation,0,ArealInterpolationGeometricCentroid,Parcel,97.3372781065089,FeatureClassBased,ReturnAll,,AddressPoint,,,1,37.7692781,-122.2123283,Relaxed
3000 WISCONSIN ST,Oakland,CA,,150,USCGeocoder,234.3788,1,4.1,,,00,AddressPoint,Success,LOCATION_TYPE_STREET_ADDRESS,Meters,ArealInterpolation,0,ArealInterpolationGeometricCentroid,Parcel,97.3372781065089,FeatureClassBased,ReturnAll,,AddressPoint,,,1,37.80185,-122.2001463,Relaxed
1800 LEIMERT BLVD,Oakland,CA,,151,USCGeocoder,187.4096,1,4.1,,,00,AddressPoint,Success,LOCATION_TYPE_STREET_ADDRESS,Meters,ArealInterpolation,0,ArealInterpolationGeometricCentroid,Parcel,97.3372781065089,FeatureClassBased,ReturnAll,,AddressPoint,,,1,37.8125118,-122.210965,Relaxed
100 CITY LIMITS CIR,Oakland,CA,,152,USCGeocoder,78.2751,1,4.1,,,03,StreetSegmentInterpolation,Success,LOCATION_TYPE_STREET_ADDRESS,Meters,LinearInterpolation,1039.00404457236,LinearInterpolationAddressRange,StreetSegment,96.0059171597633,FeatureClassBased,ReturnAll,,AddressRangeInterpolation,,,1,37.8489141297366,-122.288308977247,Relaxed
107TH AV & RUSSETT ST,Oakland,CA,,153,USCGeocoder,31.253,1,4.1,,,11,CityCentroid,Success,LOCATION_TYPE_STREET_ADDRESS,Meters,ArealInterpolation,206369070.265232,ArealInterpolationGeometricCentroid,City,50,FeatureClassBased,ReturnAll,,CityCentroid,,,1,37.7710887807485,-122.224976664539,Relaxed;Soundex
5900 ALMADEN LN,Oakland,CA,,154,USCGeocoder,234.2445,1,4.1,,,00,AddressPoint,Success,LOCATION_TYPE_STREET_ADDRESS,Meters,ArealInterpolation,0,ArealInterpolationGeometricCentroid,Parcel,97.3372781065089,FeatureClassBased,ReturnAll,,AddressPoint,,,1,37.8348834,-122.2067276,Relaxed
E 10TH ST & 52ND AV,Oakland,CA,,155,USCGeocoder,31.1803,1,4.1,,,11,CityCentroid,Success,LOCATION_TYPE_STREET_ADDRESS,Meters,ArealInterpolation,206369070.265232,ArealInterpolationGeometricCentroid,City,50,FeatureClassBased,ReturnAll,,CityCentroid,,,1,37.7710887807485,-122.224976664539,Relaxed;Soundex
2000 HOOVER AV,Oakland,CA,,156,USCGeocoder,187.4977,1,4.1,,,00,AddressPoint,Success,LOCATION_TYPE_STREET_ADDRESS,Meters,ArealInterpolation,0,ArealInterpolationGeometricCentroid,Parcel,97.3372781065089,FeatureClassBased,ReturnAll,,AddressPoint,,,1,37.8109399,-122.2074038,Relaxed
2800 GLASCOCK ST,Oakland,CA,,157,USCGeocoder,78.1043,1,4.1,,,03,StreetSegmentInterpolation,Success,LOCATION_TYPE_STREET_ADDRESS,Meters,LinearInterpolation,3115.2812488575,LinearInterpolationAddressRange,StreetSegment,96.0059171597633,FeatureClassBased,ReturnAll,,AddressRangeInterpolation,,,1,37.7728683619473,-122.235341697181,Relaxed
6600 GUNN DR,Oakland,CA,,158,USCGeocoder,78.1257,1,4.1,,,03,StreetSegmentInterpolation,Success,LOCATION_TYPE_STREET_ADDRESS,Meters,LinearInterpolation,22721.2150045466,LinearInterpolationAddressRange,StreetSegment,96.0059171597633,FeatureClassBased,ReturnAll,,AddressRangeInterpolation,,,1,37.8326592096773,-122.190275803354,Relaxed
49TH ST & WEBSTER ST,Oakland,CA,,159,USCGeocoder,46.8749,1,4.1,,,11,CityCentroid,Success,LOCATION_TYPE_STREET_ADDRESS,Meters,ArealInterpolation,206369070.265232,ArealInterpolationGeometricCentroid,City,50,FeatureClassBased,ReturnAll,,CityCentroid,,,1,37.7710887807485,-122.224976664539,Relaxed;Soundex
69TH AV & ARTHUR ST,Oakland,CA,,160,USCGeocoder,31.2715,1,4.1,,,11,CityCentroid,Success,LOCATION_TYPE_STREET_ADDRESS,Meters,ArealInterpolation,206369070.265232,ArealInterpolationGeometricCentroid,City,50,FeatureClassBased,ReturnAll,,CityCentroid,,,1,37.7710887807485,-122.224976664539,Relaxed;Soundex
8700 PLYMOUTH ST,Oakland,CA,,161,USCGeocoder,46.8718,1,4.1,,,03,StreetSegmentInterpolation,Success,LOCATION_TYPE_STREET_ADDRESS,Meters,LinearInterpolation,1960.66271563014,LinearInterpolationAddressRange,StreetSegment,96.0059171597633,FeatureClassBased,ReturnAll,,AddressRangeInterpolation,,,1,37.7532708879327,-122.172457873575,Relaxed
E 12TH ST & 9TH AV,Oakland,CA,,162,USCGeocoder,31.2525,1,4.1,,,11,CityCentroid,Success,LOCATION_TYPE_STREET_ADDRESS,Meters,ArealInterpolation,206369070.265232,ArealInterpolationGeometricCentroid,City,50,FeatureClassBased,ReturnAll,,CityCentroid,,,1,37.7710887807485,-122.224976664539,Relaxed;Soundex
800 16TH ST,Oakland,CA,,163,USCGeocoder,281.361,1,4.1,,,03,StreetSegmentInterpolation,Success,LOCATION_TYPE_STREET_ADDRESS,Meters,LinearInterpolation,2271.85467534559,LinearInterpolationAddressRange,StreetSegment,96.0059171597633,FeatureClassBased,ReturnAll,,AddressRangeInterpolation,,,1,37.8088491854053,-122.278149905364,Relaxed
5900 TAFT AV,Oakland,CA,,164,USCGeocoder,93.8632,1,4.1,,,03,StreetSegmentInterpolation,Success,LOCATION_TYPE_STREET_ADDRESS,Meters,LinearInterpolation,3443.32155213133,LinearInterpolationAddressRange,StreetSegment,96.0059171597633,FeatureClassBased,ReturnAll,,AddressRangeInterpolation,,,1,37.8433556726841,-122.245557731008,Relaxed
8100 RUDSDALE ST,Oakland,CA,,165,USCGeocoder,31.2391,1,4.1,,,03,StreetSegmentInterpolation,Success,LOCATION_TYPE_STREET_ADDRESS,Meters,LinearInterpolation,1698.4482984175,LinearInterpolationAddressRange,StreetSegment,96.0059171597633,FeatureClassBased,ReturnAll,,AddressRangeInterpolation,,,1,37.7533514427332,-122.184939699358,Relaxed
9200 RAILROAD AV,Oakland,CA,,166,USCGeocoder,46.8452,1,4.1,,,03,StreetSegmentInterpolation,Success,LOCATION_TYPE_STREET_ADDRESS,Meters,LinearInterpolation,13628.9197900188,LinearInterpolationAddressRange,StreetSegment,96.0059171597633,FeatureClassBased,ReturnAll,,AddressRangeInterpolation,,,1,37.7419163823298,-122.186592994729,Relaxed
EDES AV & NB HEGENBERGER OFFRP AV,Oakland,CA,,167,USCGeocoder,31.2453,1,4.1,,,11,CityCentroid,Success,LOCATION_TYPE_STREET_ADDRESS,Meters,ArealInterpolation,206369070.265232,ArealInterpolationGeometricCentroid,City,50,FeatureClassBased,ReturnAll,,CityCentroid,,,1,37.7710887807485,-122.224976664539,Relaxed;Soundex
95TH AV & B ST,Oakland,CA,,168,USCGeocoder,31.2515,1,4.1,,,11,CityCentroid,Success,LOCATION_TYPE_STREET_ADDRESS,Meters,ArealInterpolation,206369070.265232,ArealInterpolationGeometricCentroid,City,50,FeatureClassBased,ReturnAll,,CityCentroid,,,1,37.7710887807485,-122.224976664539,Relaxed;Soundex
14TH ST & CENTER ST,Oakland,CA,,169,USCGeocoder,31.2526,1,4.1,,,11,CityCentroid,Success,LOCATION_TYPE_STREET_ADDRESS,Meters,ArealInterpolation,206369070.265232,ArealInterpolationGeometricCentroid,City,50,FeatureClassBased,ReturnAll,,CityCentroid,,,1,37.7710887807485,-122.224976664539,Relaxed;Soundex
100 FOSTER AV,Oakland,CA,,170,USCGeocoder,187.5167,1,4.1,,,00,AddressPoint,Success,LOCATION_TYPE_STREET_ADDRESS,Meters,ArealInterpolation,0,ArealInterpolationGeometricCentroid,Parcel,97.3372781065089,FeatureClassBased,ReturnAll,,AddressPoint,,,1,37.730631,-122.1865402,Relaxed
3100 MONTEREY BLVD,Oakland,CA,,171,USCGeocoder,78.1523,1,4.1,,,03,StreetSegmentInterpolation,Success,LOCATION_TYPE_STREET_ADDRESS,Meters,LinearInterpolation,4297.96437195502,LinearInterpolationAddressRange,StreetSegment,96.0059171597633,FeatureClassBased,ReturnAll,,AddressRangeInterpolation,,,1,37.8077425495206,-122.194739890099,Relaxed
COLLEGE AV & TAFT AV,Oakland,CA,,172,USCGeocoder,31.1991,1,4.1,,,11,CityCentroid,Success,LOCATION_TYPE_STREET_ADDRESS,Meters,ArealInterpolation,206369070.265232,ArealInterpolationGeometricCentroid,City,50,FeatureClassBased,ReturnAll,,CityCentroid,,,1,37.7710887807485,-122.224976664539,Relaxed;Soundex
104TH AV & GRAFFIAN ST,Oakland,CA,,173,USCGeocoder,31.2503,1,4.1,,,11,CityCentroid,Success,LOCATION_TYPE_STREET_ADDRESS,Meters,ArealInterpolation,206369070.265232,ArealInterpolationGeometricCentroid,City,50,FeatureClassBased,ReturnAll,,CityCentroid,,,1,37.7710887807485,-122.224976664539,Relaxed;Soundex
W MACARTHUR BLVD & RUBY ST,Oakland,CA,,174,USCGeocoder,31.2389,1,4.1,,,11,CityCentroid,Success,LOCATION_TYPE_STREET_ADDRESS,Meters,ArealInterpolation,206369070.265232,ArealInterpolationGeometricCentroid,City,50,FeatureClassBased,ReturnAll,,CityCentroid,,,1,37.7710887807485,-122.224976664539,Relaxed;Soundex
500 E 21ST ST,Oakland,CA,,175,USCGeocoder,156.288,1,4.1,,,03,StreetSegmentInterpolation,Success,LOCATION_TYPE_STREET_ADDRESS,Meters,LinearInterpolation,4783.20034397393,LinearInterpolationAddressRange,StreetSegment,96.0059171597633,FeatureClassBased,ReturnAll,,AddressRangeInterpolation,,,1,37.8004448103635,-122.247348783035,Relaxed
7000 DEVON WY,Oakland,CA,,176,USCGeocoder,218.7352,1,4.1,,,00,AddressPoint,Success,LOCATION_TYPE_STREET_ADDRESS,Meters,ArealInterpolation,0,ArealInterpolationGeometricCentroid,Parcel,97.3372781065089,FeatureClassBased,ReturnAll,,AddressPoint,,,1,37.8592218,-122.2256721,Relaxed
BROADWAY & BROADWAY TER,Oakland,CA,,177,USCGeocoder,31.3028,1,4.1,,,11,CityCentroid,Success,LOCATION_TYPE_STREET_ADDRESS,Meters,ArealInterpolation,206369070.265232,ArealInterpolationGeometricCentroid,City,50,FeatureClassBased,ReturnAll,,CityCentroid,,,1,37.7710887807485,-122.224976664539,Relaxed;Soundex
65TH AV & EASTLAWN ST,Oakland,CA,,178,USCGeocoder,31.2351,1,4.1,,,11,CityCentroid,Success,LOCATION_TYPE_STREET_ADDRESS,Meters,ArealInterpolation,206369070.265232,ArealInterpolationGeometricCentroid,City,50,FeatureClassBased,ReturnAll,,CityCentroid,,,1,37.7710887807485,-122.224976664539,Relaxed;Soundex
7500 SAN LEANDRO ST,Oakland,CA,,179,USCGeocoder,62.4425,1,4.1,,,03,StreetSegmentInterpolation,Success,LOCATION_TYPE_STREET_ADDRESS,Meters,LinearInterpolation,1686.44753699284,LinearInterpolationAddressRange,StreetSegment,96.0059171597633,FeatureClassBased,ReturnAll,,AddressRangeInterpolation,,,1,37.7521675171743,-122.195355818842,Relaxed
4400 BRIAR CLIFF RD,Oakland,CA,,180,USCGeocoder,124.9994,1,4.1,,,03,StreetSegmentInterpolation,Success,LOCATION_TYPE_STREET_ADDRESS,Meters,LinearInterpolation,12101.9456755575,LinearInterpolationAddressRange,StreetSegment,96.0059171597633,FeatureClassBased,ReturnAll,,AddressRangeInterpolation,,,1,37.7664913095846,-122.141021620538,Relaxed
8800 SKYLINE BLVD,Oakland,CA,,181,USCGeocoder,46.8556,1,4.1,,,03,StreetSegmentInterpolation,Success,LOCATION_TYPE_STREET_ADDRESS,Meters,LinearInterpolation,49415.9623042305,LinearInterpolationAddressRange,StreetSegment,96.0059171597633,FeatureClassBased,ReturnAll,,AddressRangeInterpolation,,,1,37.8289307982781,-122.187819251044,Relaxed
9500 A ST,Oakland,CA,,182,USCGeocoder,31.2763,1,4.1,,,03,StreetSegmentInterpolation,Success,LOCATION_TYPE_STREET_ADDRESS,Meters,LinearInterpolation,2078.54429397965,LinearInterpolationAddressRange,StreetSegment,96.0059171597633,FeatureClassBased,ReturnAll,,AddressRangeInterpolation,,,1,37.7457277142694,-122.173705408797,Relaxed
6200 CLIVE AV,Oakland,CA,,183,USCGeocoder,218.6687,1,4.1,,,00,AddressPoint,Success,LOCATION_TYPE_STREET_ADDRESS,Meters,ArealInterpolation,0,ArealInterpolationGeometricCentroid,Parcel,97.3372781065089,FeatureClassBased,ReturnAll,,AddressPoint,,,1,37.8261687,-122.192106,Relaxed
COLTON BLVD & SNAKE RD,Oakland,CA,,184,USCGeocoder,15.8026,1,4.1,,,11,CityCentroid,Success,LOCATION_TYPE_STREET_ADDRESS,Meters,ArealInterpolation,206369070.265232,ArealInterpolationGeometricCentroid,City,50,FeatureClassBased,ReturnAll,,CityCentroid,,,1,37.7710887807485,-122.224976664539,Relaxed;Soundex
9500 HILLSIDE ST,Oakland,CA,,185,USCGeocoder,218.9118,1,4.1,,,00,AddressPoint,Success,LOCATION_TYPE_STREET_ADDRESS,Meters,ArealInterpolation,0,ArealInterpolationGeometricCentroid,Parcel,97.3372781065089,FeatureClassBased,ReturnAll,,AddressPoint,,,1,37.7515994,-122.1611423,Relaxed
2000 21ST AV,Oakland,CA,,186,USCGeocoder,249.9533,1,4.1,,,00,AddressPoint,Success,LOCATION_TYPE_STREET_ADDRESS,Meters,ArealInterpolation,0,ArealInterpolationGeometricCentroid,Parcel,97.3372781065089,FeatureClassBased,ReturnAll,,AddressPoint,,,1,37.789503,-122.2345665,Relaxed
61ST ST & DOVER ST,Oakland,CA,,187,USCGeocoder,31.4592,1,4.1,,,11,CityCentroid,Success,LOCATION_TYPE_STREET_ADDRESS,Meters,ArealInterpolation,206369070.265232,ArealInterpolationGeometricCentroid,City,50,FeatureClassBased,ReturnAll,,CityCentroid,,,1,37.7710887807485,-122.224976664539,Relaxed;Soundex
GRAND AV & JEAN ST,Oakland,CA,,188,USCGeocoder,31.4049,1,4.1,,,11,CityCentroid,Success,LOCATION_TYPE_STREET_ADDRESS,Meters,ArealInterpolation,206369070.265232,ArealInterpolationGeometricCentroid,City,50,FeatureClassBased,ReturnAll,,CityCentroid,,,1,37.7710887807485,-122.224976664539,Relaxed;Soundex
5200 SADDLEBROOK DR,Oakland,CA,,189,USCGeocoder,203.1312,1,4.1,,,00,AddressPoint,Success,LOCATION_TYPE_STREET_ADDRESS,Meters,ArealInterpolation,0,ArealInterpolationGeometricCentroid,Parcel,92.4959655728886,FeatureClassBased,ReturnAll,,AddressPoint,,,1,37.7905,-122.1469581,Relaxed;Soundex
1200 22ND AV,Oakland,CA,,190,USCGeocoder,109.4038,1,4.1,,,03,StreetSegmentInterpolation,Success,LOCATION_TYPE_STREET_ADDRESS,Meters,LinearInterpolation,1330.6686808411,LinearInterpolationAddressRange,StreetSegment,96.0059171597633,FeatureClassBased,ReturnAll,,AddressRangeInterpolation,,,1,37.7837086814421,-122.238546264117,Relaxed
3700 CANON AV,Oakland,CA,,191,USCGeocoder,46.8767,1,4.1,,,03,StreetSegmentInterpolation,Success,LOCATION_TYPE_STREET_ADDRESS,Meters,LinearInterpolation,14189.5632297765,LinearInterpolationAddressRange,StreetSegment,96.0059171597633,FeatureClassBased,ReturnAll,,AddressRangeInterpolation,,,1,37.8015280976299,-122.21835834315,Relaxed
3600 E 12TH ST,Oakland,CA,,192,USCGeocoder,203.1247,1,4.1,,,03,StreetSegmentInterpolation,Success,LOCATION_TYPE_STREET_ADDRESS,Meters,LinearInterpolation,2554.03142890846,LinearInterpolationAddressRange,StreetSegment,96.0059171597633,FeatureClassBased,ReturnAll,,AddressRangeInterpolation,,,1,37.7750467263076,-122.222257208518,Relaxed
400 FRANKLIN ST,Oakland,CA,,193,USCGeocoder,234.3768,1,4.1,,,00,AddressPoint,Success,LOCATION_TYPE_STREET_ADDRESS,Meters,ArealInterpolation,0,ArealInterpolationGeometricCentroid,Parcel,97.3372781065089,FeatureClassBased,ReturnAll,,AddressPoint,,,1,37.7970252,-122.2737226,Relaxed
77TH AV & HOLLY ST,Oakland,CA,,194,USCGeocoder,31.373,1,4.1,,,11,CityCentroid,Success,LOCATION_TYPE_STREET_ADDRESS,Meters,ArealInterpolation,206369070.265232,ArealInterpolationGeometricCentroid,City,50,FeatureClassBased,ReturnAll,,CityCentroid,,,1,37.7710887807485,-122.224976664539,Relaxed;Soundex
AREA 1,Oakland,CA,,195,USCGeocoder,31.25,1,4.1,,,11,CityCentroid,Success,LOCATION_TYPE_STREET_ADDRESS,Meters,ArealInterpolation,206369070.265232,ArealInterpolationGeometricCentroid,City,50,FeatureClassBased,ReturnAll,,CityCentroid,,,1,37.7710887807485,-122.224976664539,Relaxed;Soundex
500 CHESTER ST,Oakland,CA,,196,USCGeocoder,46.7495,1,4.1,,,03,StreetSegmentInterpolation,Success,LOCATION_TYPE_STREET_ADDRESS,Meters,LinearInterpolation,1453.68849351304,LinearInterpolationAddressRange,StreetSegment,96.0059171597633,FeatureClassBased,ReturnAll,,AddressRangeInterpolation,,,1,37.8043351796029,-122.296400838186,Relaxed
6100 BROADWAY TER,Oakland,CA,,197,USCGeocoder,203.1447,1,4.1,,,00,AddressPoint,Success,LOCATION_TYPE_STREET_ADDRESS,Meters,ArealInterpolation,0,ArealInterpolationGeometricCentroid,Parcel,91.4201183431953,FeatureClassBased,ReturnAll,,AddressPoint,,,1,37.8429001,-122.2338312,Relaxed
ALIDA ST & LINCOLN AV,Oakland,CA,,198,USCGeocoder,31.2693,1,4.1,,,11,CityCentroid,Success,LOCATION_TYPE_STREET_ADDRESS,Meters,ArealInterpolation,206369070.265232,ArealInterpolationGeometricCentroid,City,50,FeatureClassBased,ReturnAll,,CityCentroid,,,1,37.7710887807485,-122.224976664539,Relaxed;Soundex
CHAMPION ST & SCHOOL ST,Oakland,CA,,199,USCGeocoder,31.3332,1,4.1,,,11,CityCentroid,Success,LOCATION_TYPE_STREET_ADDRESS,Meters,ArealInterpolation,206369070.265232,ArealInterpolationGeometricCentroid,City,50,FeatureClassBased,ReturnAll,,CityCentroid,,,1,37.7710887807485,-122.224976664539,Relaxed;Soundex
2600 MANDELA PKWY,Oakland,CA,,200,USCGeocoder,31.2448,1,4.1,,,03,StreetSegmentInterpolation,Success,LOCATION_TYPE_STREET_ADDRESS,Meters,LinearInterpolation,2907.87305218074,LinearInterpolationAddressRange,StreetSegment,96.0059171597633,FeatureClassBased,ReturnAll,,AddressRangeInterpolation,,,1,37.8206058854274,-122.28888094014,Relaxed
4400 SEQUOYAH RD,Oakland,CA,,201,USCGeocoder,187.5157,1,4.1,,,00,AddressPoint,Success,LOCATION_TYPE_STREET_ADDRESS,Meters,ArealInterpolation,0,ArealInterpolationGeometricCentroid,Parcel,97.3372781065089,FeatureClassBased,ReturnAll,,AddressPoint,,,1,37.7642993,-122.1376633,Relaxed
2200 LIVINGSTON ST,Oakland,CA,,202,USCGeocoder,203.0628,1,4.1,,,00,AddressPoint,Success,LOCATION_TYPE_STREET_ADDRESS,Meters,ArealInterpolation,0,ArealInterpolationGeometricCentroid,Parcel,97.3372781065089,FeatureClassBased,ReturnAll,,AddressPoint,,,1,37.7817895,-122.2396789,Relaxed
2600 E 12TH ST,Oakland,CA,,203,USCGeocoder,237.0267,1,4.1,,,03,StreetSegmentInterpolation,Success,LOCATION_TYPE_STREET_ADDRESS,Meters,LinearInterpolation,10824.5663789087,LinearInterpolationAddressRange,StreetSegment,96.0059171597633,FeatureClassBased,ReturnAll,,AddressRangeInterpolation,,,1,37.7800152829399,-122.232559119764,Relaxed
6000 IDAHO ST,Oakland,CA,,204,USCGeocoder,62.4666,1,4.1,,,03,StreetSegmentInterpolation,Success,LOCATION_TYPE_STREET_ADDRESS,Meters,LinearInterpolation,2307.88755017566,LinearInterpolationAddressRange,StreetSegment,96.0059171597633,FeatureClassBased,ReturnAll,,AddressRangeInterpolation,,,1,37.8434952497789,-122.280521313936,Relaxed
100 HIGH ST,Oakland,CA,,205,USCGeocoder,109.4817,1,4.1,,,11,CityCentroid,Success,LOCATION_TYPE_STREET_ADDRESS,Meters,ArealInterpolation,206369070.265232,ArealInterpolationGeometricCentroid,City,50,FeatureClassBased,ReturnAll,,CityCentroid,,,1,37.7710887807485,-122.224976664539,Relaxed;Soundex
94TH AV & LAWLOR ST,Oakland,CA,,206,USCGeocoder,31.3029,1,4.1,,,11,CityCentroid,Success,LOCATION_TYPE_STREET_ADDRESS,Meters,ArealInterpolation,206369070.265232,ArealInterpolationGeometricCentroid,City,50,FeatureClassBased,ReturnAll,,CityCentroid,,,1,37.7710887807485,-122.224976664539,Relaxed;Soundex
4100 MOUNTAIN BLVD,Oakland,CA,,207,USCGeocoder,203.0857,1,4.1,,,00,AddressPoint,Success,LOCATION_TYPE_STREET_ADDRESS,Meters,ArealInterpolation,0,ArealInterpolationGeometricCentroid,Parcel,97.3372781065089,FeatureClassBased,ReturnAll,,AddressPoint,,,1,37.7962526,-122.1826405,Relaxed
88TH AV & A ST,Oakland,CA,,208,USCGeocoder,31.2317,1,4.1,,,11,CityCentroid,Success,LOCATION_TYPE_STREET_ADDRESS,Meters,ArealInterpolation,206369070.265232,ArealInterpolationGeometricCentroid,City,50,FeatureClassBased,ReturnAll,,CityCentroid,,,1,37.7710887807485,-122.224976664539,Relaxed;Soundex
E 15TH ST & 9TH AV,Oakland,CA,,209,USCGeocoder,15.6255,1,4.1,,,11,CityCentroid,Success,LOCATION_TYPE_STREET_ADDRESS,Meters,ArealInterpolation,206369070.265232,ArealInterpolationGeometricCentroid,City,50,FeatureClassBased,ReturnAll,,CityCentroid,,,1,37.7710887807485,-122.224976664539,Relaxed;Soundex
65TH AV & FENHAM ST,Oakland,CA,,210,USCGeocoder,31.2678,1,4.1,,,11,CityCentroid,Success,LOCATION_TYPE_STREET_ADDRESS,Meters,ArealInterpolation,206369070.265232,ArealInterpolationGeometricCentroid,City,50,FeatureClassBased,ReturnAll,,CityCentroid,,,1,37.7710887807485,-122.224976664539,Relaxed;Soundex
3500 GLEN PARK RD,Oakland,CA,,211,USCGeocoder,203.1398,1,4.1,,,00,AddressPoint,Success,LOCATION_TYPE_STREET_ADDRESS,Meters,ArealInterpolation,0,ArealInterpolationGeometricCentroid,Parcel,97.3372781065089,FeatureClassBased,ReturnAll,,AddressPoint,,,1,37.8012189,-122.2257368,Relaxed
1700 20TH AV,Oakland,CA,,212,USCGeocoder,218.7435,1,4.1,,,00,AddressPoint,Success,LOCATION_TYPE_STREET_ADDRESS,Meters,ArealInterpolation,0,ArealInterpolationGeometricCentroid,Parcel,97.3372781065089,FeatureClassBased,ReturnAll,,AddressPoint,,,1,37.7883278,-122.2372744,Relaxed
2500 94TH AV,Oakland,CA,,213,USCGeocoder,62.5224,1,4.1,,,03,StreetSegmentInterpolation,Success,LOCATION_TYPE_STREET_ADDRESS,Meters,LinearInterpolation,2175.38751497515,LinearInterpolationAddressRange,StreetSegment,96.0059171597633,FeatureClassBased,ReturnAll,,AddressRangeInterpolation,,,1,37.7528570097037,-122.160286311723,Relaxed
MAPLE AV & SCHOOL ST,Oakland,CA,,214,USCGeocoder,31.2255,1,4.1,,,11,CityCentroid,Success,LOCATION_TYPE_STREET_ADDRESS,Meters,ArealInterpolation,206369070.265232,ArealInterpolationGeometricCentroid,City,50,FeatureClassBased,ReturnAll,,CityCentroid,,,1,37.7710887807485,-122.224976664539,Relaxed;Soundex
3300 NICOL AV,Oakland,CA,,215,USCGeocoder,46.898,1,4.1,,,03,StreetSegmentInterpolation,Success,LOCATION_TYPE_STREET_ADDRESS,Meters,LinearInterpolation,1466.62405597745,LinearInterpolationAddressRange,StreetSegment,96.0059171597633,FeatureClassBased,ReturnAll,,AddressRangeInterpolation,,,1,37.7911441577774,-122.210976732679,Relaxed
100 BRUSH ST,Oakland,CA,,216,USCGeocoder,93.7152,1,4.1,,,03,StreetSegmentInterpolation,Success,LOCATION_TYPE_STREET_ADDRESS,Meters,LinearInterpolation,1802.90570100024,LinearInterpolationAddressRange,StreetSegment,96.0059171597633,FeatureClassBased,ReturnAll,,AddressRangeInterpolation,,,1,37.7982174596067,-122.283804592829,Relaxed
7600 GARFIELD AV,Oakland,CA,,217,USCGeocoder,187.5318,1,4.1,,,00,AddressPoint,Success,LOCATION_TYPE_STREET_ADDRESS,Meters,ArealInterpolation,0,ArealInterpolationGeometricCentroid,Parcel,97.3372781065089,FeatureClassBased,ReturnAll,,AddressPoint,,,1,37.7652134,-122.1736119,Relaxed
2600 DURANT AV,Oakland,CA,,218,USCGeocoder,78.0945,1,4.1,,,11,CityCentroid,Success,LOCATION_TYPE_STREET_ADDRESS,Meters,ArealInterpolation,206369070.265232,ArealInterpolationGeometricCentroid,City,50,FeatureClassBased,ReturnAll,,CityCentroid,,,1,37.7710887807485,-122.224976664539,Relaxed;Soundex
3400 GRAND AV,Oakland,CA,,219,USCGeocoder,109.3795,1,4.1,,,03,StreetSegmentInterpolation,Success,LOCATION_TYPE_STREET_ADDRESS,Meters,LinearInterpolation,1639.99174345378,LinearInterpolationAddressRange,StreetSegment,96.0059171597633,FeatureClassBased,ReturnAll,,AddressRangeInterpolation,,,1,37.8138801219748,-122.24646543919,Relaxed
CHAMPION ST & HAROLD ST,Oakland,CA,,220,USCGeocoder,31.2888,1,4.1,,,11,CityCentroid,Success,LOCATION_TYPE_STREET_ADDRESS,Meters,ArealInterpolation,206369070.265232,ArealInterpolationGeometricCentroid,City,50,FeatureClassBased,ReturnAll,,CityCentroid,,,1,37.7710887807485,-122.224976664539,Relaxed;Soundex
MADERA AV & PIERSON ST,Oakland,CA,,221,USCGeocoder,31.2459,1,4.1,,,11,CityCentroid,Success,LOCATION_TYPE_STREET_ADDRESS,Meters,ArealInterpolation,206369070.265232,ArealInterpolationGeometricCentroid,City,50,FeatureClassBased,ReturnAll,,CityCentroid,,,1,37.7710887807485,-122.224976664539,Relaxed;Soundex
7900 SHAY DR,Oakland,CA,,222,USCGeocoder,78.3036,1,4.1,,,03,StreetSegmentInterpolation,Success,LOCATION_TYPE_STREET_ADDRESS,Meters,LinearInterpolation,32935.270514715,LinearInterpolationAddressRange,StreetSegment,96.0059171597633,FeatureClassBased,ReturnAll,,AddressRangeInterpolation,,,1,37.7747596030774,-122.137536973789,Relaxed
E 10TH ST & 4TH AV,Oakland,CA,,223,USCGeocoder,31.2875,1,4.1,,,11,CityCentroid,Success,LOCATION_TYPE_STREET_ADDRESS,Meters,ArealInterpolation,206369070.265232,ArealInterpolationGeometricCentroid,City,50,FeatureClassBased,ReturnAll,,CityCentroid,,,1,37.7710887807485,-122.224976664539,Relaxed;Soundex
75TH AV & HILLSIDE ST,Oakland,CA,,224,USCGeocoder,15.6228,1,4.1,,,11,CityCentroid,Success,LOCATION_TYPE_STREET_ADDRESS,Meters,ArealInterpolation,206369070.265232,ArealInterpolationGeometricCentroid,City,50,FeatureClassBased,ReturnAll,,CityCentroid,,,1,37.7710887807485,-122.224976664539,Relaxed;Soundex
800 HENRY ST,Oakland,CA,,225,USCGeocoder,62.4962,1,4.1,,,03,StreetSegmentInterpolation,Success,LOCATION_TYPE_STREET_ADDRESS,Meters,LinearInterpolation,1503.04105765745,LinearInterpolationAddressRange,StreetSegment,96.0059171597633,FeatureClassBased,ReturnAll,,AddressRangeInterpolation,,,1,37.8068418042192,-122.296618707248,Relaxed
6400 PINEHAVEN RD,Oakland,CA,,226,USCGeocoder,187.5016,1,4.1,,,00,AddressPoint,Success,LOCATION_TYPE_STREET_ADDRESS,Meters,ArealInterpolation,0,ArealInterpolationGeometricCentroid,Parcel,97.3372781065089,FeatureClassBased,ReturnAll,,AddressPoint,,,1,37.8431499,-122.2085912,Relaxed
2900 E 27TH ST,Oakland,CA,,227,USCGeocoder,156.2483,1,4.1,,,03,StreetSegmentInterpolation,Success,LOCATION_TYPE_STREET_ADDRESS,Meters,LinearInterpolation,3657.69401966967,LinearInterpolationAddressRange,StreetSegment,96.0059171597633,FeatureClassBased,ReturnAll,,AddressRangeInterpolation,,,1,37.7907603964287,-122.220620781886,Relaxed
0 BAY BRIDGE,Oakland,CA,,228,USCGeocoder,156.2706,1,4.1,,,11,CityCentroid,Success,LOCATION_TYPE_STREET_ADDRESS,Meters,ArealInterpolation,206369070.265232,ArealInterpolationGeometricCentroid,City,50,FeatureClassBased,ReturnAll,,CityCentroid,,,1,37.7710887807485,-122.224976664539,Relaxed;Soundex
1600 73RD AV,Oakland,CA,,229,USCGeocoder,93.7462,1,4.1,,,03,StreetSegmentInterpolation,Success,LOCATION_TYPE_STREET_ADDRESS,Meters,LinearInterpolation,7444.84048308851,LinearInterpolationAddressRange,StreetSegment,96.0059171597633,FeatureClassBased,ReturnAll,,AddressRangeInterpolation,,,1,37.7603374876759,-122.185440753505,Relaxed
6100 HILLEGASS AV,Oakland,CA,,230,USCGeocoder,46.8846,1,4.1,,,03,StreetSegmentInterpolation,Success,LOCATION_TYPE_STREET_ADDRESS,Meters,LinearInterpolation,2580.38836992043,LinearInterpolationAddressRange,StreetSegment,96.0059171597633,FeatureClassBased,ReturnAll,,AddressRangeInterpolation,,,1,37.8481023502969,-122.254246440187,Relaxed
1300 35TH AV,Oakland,CA,,231,USCGeocoder,125.0338,1,4.1,,,03,StreetSegmentInterpolation,Success,LOCATION_TYPE_STREET_ADDRESS,Meters,LinearInterpolation,1529.32172161434,LinearInterpolationAddressRange,StreetSegment,96.0059171597633,FeatureClassBased,ReturnAll,,AddressRangeInterpolation,,,1,37.7758011002971,-122.222785320243,Relaxed
6200 EASTLAWN ST,Oakland,CA,,232,USCGeocoder,31.2331,1,4.1,,,03,StreetSegmentInterpolation,Success,LOCATION_TYPE_STREET_ADDRESS,Meters,LinearInterpolation,1634.02903631469,LinearInterpolationAddressRange,StreetSegment,96.0059171597633,FeatureClassBased,ReturnAll,,AddressRangeInterpolation,,,1,37.7626106926825,-122.199200185022,Relaxed
3400 PERALTA ST,Oakland,CA,,233,USCGeocoder,46.898,1,4.1,,,03,StreetSegmentInterpolation,Success,LOCATION_TYPE_STREET_ADDRESS,Meters,LinearInterpolation,1439.5573563911,LinearInterpolationAddressRange,StreetSegment,96.0059171597633,FeatureClassBased,ReturnAll,,AddressRangeInterpolation,,,1,37.8258934258102,-122.28227842761,Relaxed
55TH AV & HILTON ST,Oakland,CA,,234,USCGeocoder,31.2736,1,4.1,,,11,CityCentroid,Success,LOCATION_TYPE_STREET_ADDRESS,Meters,ArealInterpolation,206369070.265232,ArealInterpolationGeometricCentroid,City,50,FeatureClassBased,ReturnAll,,CityCentroid,,,1,37.7710887807485,-122.224976664539,Relaxed;Soundex
E 17TH ST & 22ND AV,Oakland,CA,,235,USCGeocoder,31.2484,1,4.1,,,11,CityCentroid,Success,LOCATION_TYPE_STREET_ADDRESS,Meters,ArealInterpolation,206369070.265232,ArealInterpolationGeometricCentroid,City,50,FeatureClassBased,ReturnAll,,CityCentroid,,,1,37.7710887807485,-122.224976664539,Relaxed;Soundex
LEE ST & VAN BUREN AV,Oakland,CA,,236,USCGeocoder,31.2875,1,4.1,,,11,CityCentroid,Success,LOCATION_TYPE_STREET_ADDRESS,Meters,ArealInterpolation,206369070.265232,ArealInterpolationGeometricCentroid,City,50,FeatureClassBased,ReturnAll,,CityCentroid,,,1,37.7710887807485,-122.224976664539,Relaxed;Soundex
47TH AV & YGNACIO AV,Oakland,CA,,237,USCGeocoder,15.6187,1,4.1,,,11,CityCentroid,Success,LOCATION_TYPE_STREET_ADDRESS,Meters,ArealInterpolation,206369070.265232,ArealInterpolationGeometricCentroid,City,50,FeatureClassBased,ReturnAll,,CityCentroid,,,1,37.7710887807485,-122.224976664539,Relaxed;Soundex
4100 SEQUOYAH RD,Oakland,CA,,238,USCGeocoder,47.0243,1,4.1,,,03,StreetSegmentInterpolation,Success,LOCATION_TYPE_STREET_ADDRESS,Meters,LinearInterpolation,2292.98028785875,LinearInterpolationAddressRange,StreetSegment,96.0059171597633,FeatureClassBased,ReturnAll,,AddressRangeInterpolation,,,1,37.7628113438229,-122.142391104464,Relaxed
3000 BROOKFIELD AV,Oakland,CA,,239,USCGeocoder,78.1344,1,4.1,,,03,StreetSegmentInterpolation,Success,LOCATION_TYPE_STREET_ADDRESS,Meters,LinearInterpolation,3637.26036776509,LinearInterpolationAddressRange,StreetSegment,96.0059171597633,FeatureClassBased,ReturnAll,,AddressRangeInterpolation,,,1,37.7335417713867,-122.138822253071,Relaxed
W GRAND AV & WAKE AV,Oakland,CA,,240,USCGeocoder,31.1819,1,4.1,,,11,CityCentroid,Success,LOCATION_TYPE_STREET_ADDRESS,Meters,ArealInterpolation,206369070.265232,ArealInterpolationGeometricCentroid,City,50,FeatureClassBased,ReturnAll,,CityCentroid,,,1,37.7710887807485,-122.224976664539,Relaxed;Soundex
E 12TH ST & 53RD AV,Oakland,CA,,241,USCGeocoder,31.4174,1,4.1,,,11,CityCentroid,Success,LOCATION_TYPE_STREET_ADDRESS,Meters,ArealInterpolation,206369070.265232,ArealInterpolationGeometricCentroid,City,50,FeatureClassBased,ReturnAll,,CityCentroid,,,1,37.7710887807485,-122.224976664539,Relaxed;Soundex
7500 DEERWOOD AV,Oakland,CA,,242,USCGeocoder,187.5287,1,4.1,,,00,AddressPoint,Success,LOCATION_TYPE_STREET_ADDRESS,Meters,ArealInterpolation,0,ArealInterpolationGeometricCentroid,Parcel,97.3372781065089,FeatureClassBased,ReturnAll,,AddressPoint,,,1,37.7629133,-122.1783802,Relaxed
5TH ST & CHESTER ST,Oakland,CA,,243,USCGeocoder,31.2106,1,4.1,,,11,CityCentroid,Success,LOCATION_TYPE_STREET_ADDRESS,Meters,ArealInterpolation,206369070.265232,ArealInterpolationGeometricCentroid,City,50,FeatureClassBased,ReturnAll,,CityCentroid,,,1,37.7710887807485,-122.224976664539,Relaxed;Soundex
3900 MADRONE AV,Oakland,CA,,244,USCGeocoder,62.498,1,4.1,,,03,StreetSegmentInterpolation,Success,LOCATION_TYPE_STREET_ADDRESS,Meters,LinearInterpolation,2415.33766371571,LinearInterpolationAddressRange,StreetSegment,96.0059171597633,FeatureClassBased,ReturnAll,,AddressRangeInterpolation,,,1,37.7893025961354,-122.189074517529,Relaxed
4700 MELDON AV,Oakland,CA,,245,USCGeocoder,203.1201,1,4.1,,,00,AddressPoint,Success,LOCATION_TYPE_STREET_ADDRESS,Meters,ArealInterpolation,0,ArealInterpolationGeometricCentroid,Parcel,97.3372781065089,FeatureClassBased,ReturnAll,,AddressPoint,,,1,37.7844002,-122.1947379,Relaxed
0 BINNACLE HILL,Oakland,CA,,246,USCGeocoder,109.384,1,4.1,,,11,CityCentroid,Success,LOCATION_TYPE_STREET_ADDRESS,Meters,ArealInterpolation,206369070.265232,ArealInterpolationGeometricCentroid,City,50,FeatureClassBased,ReturnAll,,CityCentroid,,,1,37.7710887807485,-122.224976664539,Relaxed;Soundex
2400 WARNER AV,Oakland,CA,,247,USCGeocoder,31.1674,1,4.1,,,03,StreetSegmentInterpolation,Success,LOCATION_TYPE_STREET_ADDRESS,Meters,LinearInterpolation,2176.22076206817,LinearInterpolationAddressRange,StreetSegment,96.0059171597633,FeatureClassBased,ReturnAll,,AddressRangeInterpolation,,,1,37.7480729433758,-122.158892481648,Relaxed
4300 MOUNTAIN BLVD,Oakland,CA,,248,USCGeocoder,203.0743,1,4.1,,,00,AddressPoint,Success,LOCATION_TYPE_STREET_ADDRESS,Meters,ArealInterpolation,0,ArealInterpolationGeometricCentroid,Parcel,97.3372781065089,FeatureClassBased,ReturnAll,,AddressPoint,,,1,37.7943024,-122.1810427,Relaxed
2100 FUNSTON PL,Oakland,CA,,249,USCGeocoder,218.7558,1,4.1,,,00,AddressPoint,Success,LOCATION_TYPE_STREET_ADDRESS,Meters,ArealInterpolation,0,ArealInterpolationGeometricCentroid,Parcel,97.3372781065089,FeatureClassBased,ReturnAll,,AddressPoint,,,1,37.8097696,-122.2066522,Relaxed
56TH ST & LOWELL ST,Oakland,CA,,250,USCGeocoder,31.253,1,4.1,,,11,CityCentroid,Success,LOCATION_TYPE_STREET_ADDRESS,Meters,ArealInterpolation,206369070.265232,ArealInterpolationGeometricCentroid,City,50,FeatureClassBased,ReturnAll,,CityCentroid,,,1,37.7710887807485,-122.224976664539,Relaxed;Soundex
5900 COLBY ST,Oakland,CA,,251,USCGeocoder,62.502,1,4.1,,,03,StreetSegmentInterpolation,Success,LOCATION_TYPE_STREET_ADDRESS,Meters,LinearInterpolation,1934.79702764889,LinearInterpolationAddressRange,StreetSegment,96.0059171597633,FeatureClassBased,ReturnAll,,AddressRangeInterpolation,,,1,37.8461253776283,-122.25623092211,Relaxed
NB 98TH OFFRP AV & NB I880,Oakland,CA,,252,USCGeocoder,31.2505,1,4.1,,,11,CityCentroid,Success,LOCATION_TYPE_STREET_ADDRESS,Meters,ArealInterpolation,206369070.265232,ArealInterpolationGeometricCentroid,City,50,FeatureClassBased,ReturnAll,,CityCentroid,,,1,37.7710887807485,-122.224976664539,Relaxed;Soundex
2100 96TH AV,Oakland,CA,,253,USCGeocoder,78.0121,1,4.1,,,03,StreetSegmentInterpolation,Success,LOCATION_TYPE_STREET_ADDRESS,Meters,LinearInterpolation,2303.51579474937,LinearInterpolationAddressRange,StreetSegment,96.0059171597633,FeatureClassBased,ReturnAll,,AddressRangeInterpolation,,,1,37.7492375869589,-122.16392106495,Relaxed
6200 LEONA ST,Oakland,CA,,254,USCGeocoder,187.4789,1,4.1,,,00,AddressPoint,Success,LOCATION_TYPE_STREET_ADDRESS,Meters,ArealInterpolation,0,ArealInterpolationGeometricCentroid,Parcel,97.3372781065089,FeatureClassBased,ReturnAll,,AddressPoint,,,1,37.7824881,-122.1719438,Relaxed
62ND AV & LAIRD AV,Oakland,CA,,255,USCGeocoder,31.24,1,4.1,,,11,CityCentroid,Success,LOCATION_TYPE_STREET_ADDRESS,Meters,ArealInterpolation,206369070.265232,ArealInterpolationGeometricCentroid,City,50,FeatureClassBased,ReturnAll,,CityCentroid,,,1,37.7710887807485,-122.224976664539,Relaxed;Soundex
MINNA AV & PENNIMAN AV,Oakland,CA,,256,USCGeocoder,15.6059,1,4.1,,,11,CityCentroid,Success,LOCATION_TYPE_STREET_ADDRESS,Meters,ArealInterpolation,206369070.265232,ArealInterpolationGeometricCentroid,City,50,FeatureClassBased,ReturnAll,,CityCentroid,,,1,37.7710887807485,-122.224976664539,Relaxed;Soundex
4400 TURNER AV,Oakland,CA,,257,USCGeocoder,234.3693,1,4.1,,,00,AddressPoint,Success,LOCATION_TYPE_STREET_ADDRESS,Meters,ArealInterpolation,0,ArealInterpolationGeometricCentroid,Parcel,97.3372781065089,FeatureClassBased,ReturnAll,,AddressPoint,,,1,37.7454218,-122.1241164,Relaxed
7500 EDGEWATER DR,Oakland,CA,,258,USCGeocoder,203.1016,1,4.1,,,00,AddressPoint,Success,LOCATION_TYPE_STREET_ADDRESS,Meters,ArealInterpolation,0,ArealInterpolationGeometricCentroid,Parcel,97.3372781065089,FeatureClassBased,ReturnAll,,AddressPoint,,,1,37.7456046,-122.2048246,Relaxed
COURTLAND AV & FLEMING AV,Oakland,CA,,259,USCGeocoder,31.2523,1,4.1,,,11,CityCentroid,Success,LOCATION_TYPE_STREET_ADDRESS,Meters,ArealInterpolation,206369070.265232,ArealInterpolationGeometricCentroid,City,50,FeatureClassBased,ReturnAll,,CityCentroid,,,1,37.7710887807485,-122.224976664539,Relaxed;Soundex
10800 BANCROFT AV,Oakland,CA,,260,USCGeocoder,171.8544,1,4.1,,,00,AddressPoint,Success,LOCATION_TYPE_STREET_ADDRESS,Meters,ArealInterpolation,0,ArealInterpolationGeometricCentroid,Parcel,97.3372781065089,FeatureClassBased,ReturnAll,,AddressPoint,,,1,37.7402878,-122.1556024,Relaxed
CAIRO RD & HEGENBERGER LOOP,Oakland,CA,,261,USCGeocoder,31.2441,1,4.1,,,11,CityCentroid,Success,LOCATION_TYPE_STREET_ADDRESS,Meters,ArealInterpolation,206369070.265232,ArealInterpolationGeometricCentroid,City,50,FeatureClassBased,ReturnAll,,CityCentroid,,,1,37.7710887807485,-122.224976664539,Relaxed;Soundex
6600 LIGGETT DR,Oakland,CA,,262,USCGeocoder,203.1112,1,4.1,,,00,AddressPoint,Success,LOCATION_TYPE_STREET_ADDRESS,Meters,ArealInterpolation,0,ArealInterpolationGeometricCentroid,Parcel,97.3372781065089,FeatureClassBased,ReturnAll,,AddressPoint,,,1,37.8239042,-122.210882,Relaxed
61ST ST & MARKET ST,Oakland,CA,,263,USCGeocoder,31.1103,1,4.1,,,11,CityCentroid,Success,LOCATION_TYPE_STREET_ADDRESS,Meters,ArealInterpolation,206369070.265232,ArealInterpolationGeometricCentroid,City,50,FeatureClassBased,ReturnAll,,CityCentroid,,,1,37.7710887807485,-122.224976664539,Relaxed;Soundex
8100 IRIS ST,Oakland,CA,,264,USCGeocoder,202.7654,1,4.1,,,00,AddressPoint,Success,LOCATION_TYPE_STREET_ADDRESS,Meters,ArealInterpolation,0,ArealInterpolationGeometricCentroid,Parcel,97.3372781065089,FeatureClassBased,ReturnAll,,AddressPoint,,,1,37.7625106,-122.1671687,Relaxed
10500 ROYAL ANN ST,Oakland,CA,,265,USCGeocoder,46.939,1,4.1,,,03,StreetSegmentInterpolation,Success,LOCATION_TYPE_STREET_ADDRESS,Meters,LinearInterpolation,1829.05075522512,LinearInterpolationAddressRange,StreetSegment,96.0059171597633,FeatureClassBased,ReturnAll,,AddressRangeInterpolation,,,1,37.7373724073171,-122.170658569939,Relaxed
8000 GREENLY DR,Oakland,CA,,266,USCGeocoder,171.8623,1,4.1,,,00,AddressPoint,Success,LOCATION_TYPE_STREET_ADDRESS,Meters,ArealInterpolation,0,ArealInterpolationGeometricCentroid,Parcel,97.3372781065089,FeatureClassBased,ReturnAll,,AddressPoint,,,1,37.7688845,-122.1570479,Relaxed
3400 LYNDE ST,Oakland,CA,,267,USCGeocoder,62.5164,1,4.1,,,03,StreetSegmentInterpolation,Success,LOCATION_TYPE_STREET_ADDRESS,Meters,LinearInterpolation,2189.69161059288,LinearInterpolationAddressRange,StreetSegment,96.0059171597633,FeatureClassBased,ReturnAll,,AddressRangeInterpolation,,,1,37.7880920094309,-122.213841000854,Relaxed
4500 DAVENPORT AV,Oakland,CA,,268,USCGeocoder,62.5863,1,4.1,,,03,StreetSegmentInterpolation,Success,LOCATION_TYPE_STREET_ADDRESS,Meters,LinearInterpolation,6609.19156475971,LinearInterpolationAddressRange,StreetSegment,96.0059171597633,FeatureClassBased,ReturnAll,,AddressRangeInterpolation,,,1,37.7897832207587,-122.183755394571,Relaxed
24TH ST & HARRISON ST,Oakland,CA,,269,USCGeocoder,15.5786,1,4.1,,,11,CityCentroid,Success,LOCATION_TYPE_STREET_ADDRESS,Meters,ArealInterpolation,206369070.265232,ArealInterpolationGeometricCentroid,City,50,FeatureClassBased,ReturnAll,,CityCentroid,,,1,37.7710887807485,-122.224976664539,Relaxed;Soundex
3200 HIGH ST,Oakland,CA,,270,USCGeocoder,203.0458,1,4.1,,,00,AddressPoint,Success,LOCATION_TYPE_STREET_ADDRESS,Meters,ArealInterpolation,0,ArealInterpolationGeometricCentroid,Parcel,97.3372781065089,FeatureClassBased,ReturnAll,,AddressPoint,,,1,37.7852807,-122.1979328,Relaxed
89TH AV & A ST,Oakland,CA,,271,USCGeocoder,31.183,1,4.1,,,11,CityCentroid,Success,LOCATION_TYPE_STREET_ADDRESS,Meters,ArealInterpolation,206369070.265232,ArealInterpolationGeometricCentroid,City,50,FeatureClassBased,ReturnAll,,CityCentroid,,,1,37.7710887807485,-122.224976664539,Relaxed;Soundex
11100 SUN VALLEY DR,Oakland,CA,,272,USCGeocoder,234.3802,1,4.1,,,00,AddressPoint,Success,LOCATION_TYPE_STREET_ADDRESS,Meters,ArealInterpolation,0,ArealInterpolationGeometricCentroid,Parcel,97.3372781065089,FeatureClassBased,ReturnAll,,AddressPoint,,,1,37.7532041,-122.1188089,Relaxed
ADELINE ST & MIDDLE HARBOR RD,Oakland,CA,,273,USCGeocoder,46.9177,1,4.1,,,11,CityCentroid,Success,LOCATION_TYPE_STREET_ADDRESS,Meters,ArealInterpolation,206369070.265232,ArealInterpolationGeometricCentroid,City,50,FeatureClassBased,ReturnAll,,CityCentroid,,,1,37.7710887807485,-122.224976664539,Relaxed;Soundex
10100 PLYMOUTH ST,Oakland,CA,,274,USCGeocoder,62.6778,1,4.1,,,03,StreetSegmentInterpolation,Success,LOCATION_TYPE_STREET_ADDRESS,Meters,LinearInterpolation,1905.92605669657,LinearInterpolationAddressRange,StreetSegment,96.0059171597633,FeatureClassBased,ReturnAll,,AddressRangeInterpolation,,,1,37.7430587826936,-122.16527187144,Relaxed
6500 MACARTHUR BLVD,Oakland,CA,,275,USCGeocoder,31.0106,1,4.1,,,03,StreetSegmentInterpolation,Success,LOCATION_TYPE_STREET_ADDRESS,Meters,LinearInterpolation,1994.55100347521,LinearInterpolationAddressRange,StreetSegment,96.0059171597633,FeatureClassBased,ReturnAll,,AddressRangeInterpolation,,,1,37.7731452042274,-122.178602365906,Relaxed
3700 VIRDEN AV,Oakland,CA,,276,USCGeocoder,171.9297,1,4.1,,,00,AddressPoint,Success,LOCATION_TYPE_STREET_ADDRESS,Meters,ArealInterpolation,0,ArealInterpolationGeometricCentroid,Parcel,97.3372781065089,FeatureClassBased,ReturnAll,,AddressPoint,,,1,37.7961859,-122.1913732,Relaxed
1600 E 22ND ST,Oakland,CA,,277,USCGeocoder,78.1188,1,4.1,,,03,StreetSegmentInterpolation,Success,LOCATION_TYPE_STREET_ADDRESS,Meters,LinearInterpolation,2175.71286979504,LinearInterpolationAddressRange,StreetSegment,96.0059171597633,FeatureClassBased,ReturnAll,,AddressRangeInterpolation,,,1,37.7938977638345,-122.238066647736,Relaxed
8TH ST & CASTRO ST,Oakland,CA,,278,USCGeocoder,31.2458,1,4.1,,,11,CityCentroid,Success,LOCATION_TYPE_STREET_ADDRESS,Meters,ArealInterpolation,206369070.265232,ArealInterpolationGeometricCentroid,City,50,FeatureClassBased,ReturnAll,,CityCentroid,,,1,37.7710887807485,-122.224976664539,Relaxed;Soundex
13TH AV & E 34TH ST,Oakland,CA,,279,USCGeocoder,31.2784,1,4.1,,,11,CityCentroid,Success,LOCATION_TYPE_STREET_ADDRESS,Meters,ArealInterpolation,206369070.265232,ArealInterpolationGeometricCentroid,City,50,FeatureClassBased,ReturnAll,,CityCentroid,,,1,37.7710887807485,-122.224976664539,Relaxed;Soundex
E 7TH ST & DERBY AV,Oakland,CA,,280,USCGeocoder,15.6552,1,4.1,,,11,CityCentroid,Success,LOCATION_TYPE_STREET_ADDRESS,Meters,ArealInterpolation,206369070.265232,ArealInterpolationGeometricCentroid,City,50,FeatureClassBased,ReturnAll,,CityCentroid,,,1,37.7710887807485,-122.224976664539,Relaxed;Soundex
800 SUNNYHILLS RD,Oakland,CA,,281,USCGeocoder,46.9031,1,4.1,,,03,StreetSegmentInterpolation,Success,LOCATION_TYPE_STREET_ADDRESS,Meters,LinearInterpolation,3026.28976594424,LinearInterpolationAddressRange,StreetSegment,96.0059171597633,FeatureClassBased,ReturnAll,,AddressRangeInterpolation,,,1,37.8072492339852,-122.235067220362,Relaxed
ATHOL AV & NEWTON AV,Oakland,CA,,282,USCGeocoder,31.2465,1,4.1,,,11,CityCentroid,Success,LOCATION_TYPE_STREET_ADDRESS,Meters,ArealInterpolation,206369070.265232,ArealInterpolationGeometricCentroid,City,50,FeatureClassBased,ReturnAll,,CityCentroid,,,1,37.7710887807485,-122.224976664539,Relaxed;Soundex
MACARTHUR BLVD & MILLSBRAE AV,Oakland,CA,,283,USCGeocoder,31.309,1,4.1,,,11,CityCentroid,Success,LOCATION_TYPE_STREET_ADDRESS,Meters,ArealInterpolation,206369070.265232,ArealInterpolationGeometricCentroid,City,50,FeatureClassBased,ReturnAll,,CityCentroid,,,1,37.7710887807485,-122.224976664539,Relaxed;Soundex
65TH ST & HERZOG ST,Oakland,CA,,284,USCGeocoder,31.3844,1,4.1,,,11,CityCentroid,Success,LOCATION_TYPE_STREET_ADDRESS,Meters,ArealInterpolation,206369070.265232,ArealInterpolationGeometricCentroid,City,50,FeatureClassBased,ReturnAll,,CityCentroid,,,1,37.7710887807485,-122.224976664539,Relaxed;Soundex
12TH AV & E 15TH ST,Oakland,CA,,285,USCGeocoder,31.3268,1,4.1,,,11,CityCentroid,Success,LOCATION_TYPE_STREET_ADDRESS,Meters,ArealInterpolation,206369070.265232,ArealInterpolationGeometricCentroid,City,50,FeatureClassBased,ReturnAll,,CityCentroid,,,1,37.7710887807485,-122.224976664539,Relaxed;Soundex
6100 MARGARIDO DR,Oakland,CA,,286,USCGeocoder,171.8711,1,4.1,,,00,AddressPoint,Success,LOCATION_TYPE_STREET_ADDRESS,Meters,ArealInterpolation,0,ArealInterpolationGeometricCentroid,Parcel,97.3372781065089,FeatureClassBased,ReturnAll,,AddressPoint,,,1,37.8475715,-122.2420218,Relaxed
ELYSIAN FIELDS DR & KELLER AV,Oakland,CA,,287,USCGeocoder,31.27,1,4.1,,,11,CityCentroid,Success,LOCATION_TYPE_STREET_ADDRESS,Meters,ArealInterpolation,206369070.265232,ArealInterpolationGeometricCentroid,City,50,FeatureClassBased,ReturnAll,,CityCentroid,,,1,37.7710887807485,-122.224976664539,Relaxed;Soundex
6200 BOULDER AV,Oakland,CA,,288,USCGeocoder,78.1452,1,4.1,,,03,StreetSegmentInterpolation,Success,LOCATION_TYPE_STREET_ADDRESS,Meters,LinearInterpolation,2245.4896762995,LinearInterpolationAddressRange,StreetSegment,96.0059171597633,FeatureClassBased,ReturnAll,,AddressRangeInterpolation,,,1,37.779310611715,-122.165146553297,Relaxed
4400 BANCROFT AV,Oakland,CA,,289,USCGeocoder,62.5038,1,4.1,,,03,StreetSegmentInterpolation,Success,LOCATION_TYPE_STREET_ADDRESS,Meters,LinearInterpolation,2534.34015064337,LinearInterpolationAddressRange,StreetSegment,96.0059171597633,FeatureClassBased,ReturnAll,,AddressRangeInterpolation,,,1,37.7732260106086,-122.213061296373,Relaxed
5800 AYALA AV,Oakland,CA,,290,USCGeocoder,203.0922,1,4.1,,,00,AddressPoint,Success,LOCATION_TYPE_STREET_ADDRESS,Meters,ArealInterpolation,0,ArealInterpolationGeometricCentroid,Parcel,97.3372781065089,FeatureClassBased,ReturnAll,,AddressPoint,,,1,37.8441396,-122.2578073,Relaxed
0 BERNEVES CT,Oakland,CA,,291,USCGeocoder,124.9992,1,4.1,,,11,CityCentroid,Success,LOCATION_TYPE_STREET_ADDRESS,Meters,ArealInterpolation,206369070.265232,ArealInterpolationGeometricCentroid,City,50,FeatureClassBased,ReturnAll,,CityCentroid,,,1,37.7710887807485,-122.224976664539,Relaxed;Soundex
6800 ARMOUR DR,Oakland,CA,,292,USCGeocoder,78.1372,1,4.1,,,03,StreetSegmentInterpolation,Success,LOCATION_TYPE_STREET_ADDRESS,Meters,LinearInterpolation,27030.7672043466,LinearInterpolationAddressRange,StreetSegment,96.0059171597633,FeatureClassBased,ReturnAll,,AddressRangeInterpolation,,,1,37.8364250430798,-122.203353089687,Relaxed
5800 CHABOT CT,Oakland,CA,,293,USCGeocoder,187.4086,1,4.1,,,00,AddressPoint,Success,LOCATION_TYPE_STREET_ADDRESS,Meters,ArealInterpolation,0,ArealInterpolationGeometricCentroid,Parcel,91.4201183431953,FeatureClassBased,ReturnAll,,AddressPoint,,,1,37.845834,-122.2548199,Relaxed
61ST ST & RACINE ST,Oakland,CA,,294,USCGeocoder,31.2694,1,4.1,,,11,CityCentroid,Success,LOCATION_TYPE_STREET_ADDRESS,Meters,ArealInterpolation,206369070.265232,ArealInterpolationGeometricCentroid,City,50,FeatureClassBased,ReturnAll,,CityCentroid,,,1,37.7710887807485,-122.224976664539,Relaxed;Soundex
500 52ND ST,Oakland,CA,,295,USCGeocoder,47.0379,1,4.1,,,03,StreetSegmentInterpolation,Success,LOCATION_TYPE_STREET_ADDRESS,Meters,LinearInterpolation,4761.34175360925,LinearInterpolationAddressRange,StreetSegment,96.0059171597633,FeatureClassBased,ReturnAll,,AddressRangeInterpolation,,,1,37.8381155297538,-122.262303068787,Relaxed
8200 SKYLINE BLVD,Oakland,CA,,296,USCGeocoder,46.8999,1,4.1,,,03,StreetSegmentInterpolation,Success,LOCATION_TYPE_STREET_ADDRESS,Meters,LinearInterpolation,95608.8873619095,LinearInterpolationAddressRange,StreetSegment,96.0059171597633,FeatureClassBased,ReturnAll,,AddressRangeInterpolation,,,1,37.8362273879434,-122.185105100106,Relaxed
44TH ST & LINDEN ST,Oakland,CA,,297,USCGeocoder,15.6038,1,4.1,,,11,CityCentroid,Success,LOCATION_TYPE_STREET_ADDRESS,Meters,ArealInterpolation,206369070.265232,ArealInterpolationGeometricCentroid,City,50,FeatureClassBased,ReturnAll,,CityCentroid,,,1,37.7710887807485,-122.224976664539,Relaxed;Soundex
3600 BRUNELL DR,Oakland,CA,,298,USCGeocoder,187.5226,1,4.1,,,00,AddressPoint,Success,LOCATION_TYPE_STREET_ADDRESS,Meters,ArealInterpolation,0,ArealInterpolationGeometricCentroid,Parcel,97.3372781065089,FeatureClassBased,ReturnAll,,AddressPoint,,,1,37.8036575,-122.1821343,Relaxed
200 E 11TH ST,Oakland,CA,,299,USCGeocoder,296.9003,1,4.1,,,03,StreetSegmentInterpolation,Success,LOCATION_TYPE_STREET_ADDRESS,Meters,LinearInterpolation,2515.39789445186,LinearInterpolationAddressRange,StreetSegment,96.0059171597633,FeatureClassBased,ReturnAll,,AddressRangeInterpolation,,,1,37.7966589459268,-122.258191303574,Relaxed
57TH ST & ADELINE ST,Oakland,CA,,300,USCGeocoder,15.6426,1,4.1,,,11,CityCentroid,Success,LOCATION_TYPE_STREET_ADDRESS,Meters,ArealInterpolation,206369070.265232,ArealInterpolationGeometricCentroid,City,50,FeatureClassBased,ReturnAll,,CityCentroid,,,1,37.7710887807485,-122.224976664539,Relaxed;Soundex
4100 SAINT ANDREWS RD,Oakland,CA,,301,USCGeocoder,140.6487,1,4.1,,,03,StreetSegmentInterpolation,Success,LOCATION_TYPE_STREET_ADDRESS,Meters,LinearInterpolation,44955.5378157953,LinearInterpolationAddressRange,StreetSegment,96.0059171597633,FeatureClassBased,ReturnAll,,AddressRangeInterpolation,,,1,37.7629505759165,-122.142307396125,Relaxed
3800 WEBSTER ST,Oakland,CA,,302,USCGeocoder,62.5978,1,4.1,,,03,StreetSegmentInterpolation,Success,LOCATION_TYPE_STREET_ADDRESS,Meters,LinearInterpolation,4690.62951862812,LinearInterpolationAddressRange,StreetSegment,96.0059171597633,FeatureClassBased,ReturnAll,,AddressRangeInterpolation,,,1,37.8266402704474,-122.261287074779,Relaxed
82ND AV & IDLEWOOD ST,Oakland,CA,,303,USCGeocoder,31.1281,1,4.1,,,11,CityCentroid,Success,LOCATION_TYPE_STREET_ADDRESS,Meters,ArealInterpolation,206369070.265232,ArealInterpolationGeometricCentroid,City,50,FeatureClassBased,ReturnAll,,CityCentroid,,,1,37.7710887807485,-122.224976664539,Relaxed;Soundex
6700 AITKEN DR,Oakland,CA,,304,USCGeocoder,203.0934,1,4.1,,,00,AddressPoint,Success,LOCATION_TYPE_STREET_ADDRESS,Meters,ArealInterpolation,0,ArealInterpolationGeometricCentroid,Parcel,97.3372781065089,FeatureClassBased,ReturnAll,,AddressPoint,,,1,37.831756,-122.1876523,Relaxed
1800 IRVING AV,Oakland,CA,,305,USCGeocoder,46.8686,1,4.1,,,03,StreetSegmentInterpolation,Success,LOCATION_TYPE_STREET_ADDRESS,Meters,LinearInterpolation,4149.50347052561,LinearInterpolationAddressRange,StreetSegment,96.0059171597633,FeatureClassBased,ReturnAll,,AddressRangeInterpolation,,,1,37.7846497126849,-122.230780130641,Relaxed
FAIRMOUNT AV & MACARTHUR BLVD,Oakland,CA,,306,USCGeocoder,31.1998,1,4.1,,,11,CityCentroid,Success,LOCATION_TYPE_STREET_ADDRESS,Meters,ArealInterpolation,206369070.265232,ArealInterpolationGeometricCentroid,City,50,FeatureClassBased,ReturnAll,,CityCentroid,,,1,37.7710887807485,-122.224976664539,Relaxed;Soundex
5700 GASKILL ST,Oakland,CA,,307,USCGeocoder,46.9617,1,4.1,,,03,StreetSegmentInterpolation,Success,LOCATION_TYPE_STREET_ADDRESS,Meters,LinearInterpolation,1831.69992515701,LinearInterpolationAddressRange,StreetSegment,96.0059171597633,FeatureClassBased,ReturnAll,,AddressRangeInterpolation,,,1,37.840718776564,-122.280513791536,Relaxed
3600 WISCONSIN ST,Oakland,CA,,308,USCGeocoder,187.534,1,4.1,,,00,AddressPoint,Success,LOCATION_TYPE_STREET_ADDRESS,Meters,ArealInterpolation,0,ArealInterpolationGeometricCentroid,Parcel,97.3372781065089,FeatureClassBased,ReturnAll,,AddressPoint,,,1,37.7960975,-122.1945744,Relaxed
2800 BELLAIRE PL,Oakland,CA,,309,USCGeocoder,187.525,1,4.1,,,00,AddressPoint,Success,LOCATION_TYPE_STREET_ADDRESS,Meters,ArealInterpolation,0,ArealInterpolationGeometricCentroid,Parcel,97.3372781065089,FeatureClassBased,ReturnAll,,AddressPoint,,,1,37.7921273,-122.2200767,Relaxed
BIENATI WY & DIMOND AV,Oakland,CA,,310,USCGeocoder,31.2457,1,4.1,,,11,CityCentroid,Success,LOCATION_TYPE_STREET_ADDRESS,Meters,ArealInterpolation,206369070.265232,ArealInterpolationGeometricCentroid,City,50,FeatureClassBased,ReturnAll,,CityCentroid,,,1,37.7710887807485,-122.224976664539,Relaxed;Soundex
5800 AMY DR,Oakland,CA,,311,USCGeocoder,78.1204,1,4.1,,,03,StreetSegmentInterpolation,Success,LOCATION_TYPE_STREET_ADDRESS,Meters,LinearInterpolation,5908.89098379528,LinearInterpolationAddressRange,StreetSegment,96.0059171597633,FeatureClassBased,ReturnAll,,AddressRangeInterpolation,,,1,37.8348330905434,-122.22399470013,Relaxed
4300 RETTIG AV,Oakland,CA,,312,USCGeocoder,46.8502,1,4.1,,,03,StreetSegmentInterpolation,Success,LOCATION_TYPE_STREET_ADDRESS,Meters,LinearInterpolation,15780.5668733027,LinearInterpolationAddressRange,StreetSegment,96.0059171597633,FeatureClassBased,ReturnAll,,AddressRangeInterpolation,,,1,37.802533136346,-122.194704736866,Relaxed
77TH AV & HAWLEY ST,Oakland,CA,,313,USCGeocoder,31.3259,1,4.1,,,11,CityCentroid,Success,LOCATION_TYPE_STREET_ADDRESS,Meters,ArealInterpolation,206369070.265232,ArealInterpolationGeometricCentroid,City,50,FeatureClassBased,ReturnAll,,CityCentroid,,,1,37.7710887807485,-122.224976664539,Relaxed;Soundex
WB S24 & TELEGRAPH AV,Oakland,CA,,314,USCGeocoder,15.6465,1,4.1,,,11,CityCentroid,Success,LOCATION_TYPE_STREET_ADDRESS,Meters,ArealInterpolation,206369070.265232,ArealInterpolationGeometricCentroid,City,50,FeatureClassBased,ReturnAll,,CityCentroid,,,1,37.7710887807485,-122.224976664539,Relaxed;Soundex
54TH ST & LOWELL ST,Oakland,CA,,315,USCGeocoder,15.6256,1,4.1,,,11,CityCentroid,Success,LOCATION_TYPE_STREET_ADDRESS,Meters,ArealInterpolation,206369070.265232,ArealInterpolationGeometricCentroid,City,50,FeatureClassBased,ReturnAll,,CityCentroid,,,1,37.7710887807485,-122.224976664539,Relaxed;Soundex
4700 MANILA AV,Oakland,CA,,316,USCGeocoder,203.0925,1,4.1,,,00,AddressPoint,Success,LOCATION_TYPE_STREET_ADDRESS,Meters,ArealInterpolation,0,ArealInterpolationGeometricCentroid,Parcel,97.3372781065089,FeatureClassBased,ReturnAll,,AddressPoint,,,1,37.8339743,-122.2557138,Relaxed
4300 NORTON AV,Oakland,CA,,317,USCGeocoder,203.1229,1,4.1,,,00,AddressPoint,Success,LOCATION_TYPE_STREET_ADDRESS,Meters,ArealInterpolation,0,ArealInterpolationGeometricCentroid,Parcel,97.3372781065089,FeatureClassBased,ReturnAll,,AddressPoint,,,1,37.801027,-122.1936946,Relaxed
24TH ST & MYRTLE ST,Oakland,CA,,318,USCGeocoder,31.244,1,4.1,,,11,CityCentroid,Success,LOCATION_TYPE_STREET_ADDRESS,Meters,ArealInterpolation,206369070.265232,ArealInterpolationGeometricCentroid,City,50,FeatureClassBased,ReturnAll,,CityCentroid,,,1,37.7710887807485,-122.224976664539,Relaxed;Soundex
10700 BEVERLY AV,Oakland,CA,,319,USCGeocoder,218.762,1,4.1,,,00,AddressPoint,Success,LOCATION_TYPE_STREET_ADDRESS,Meters,ArealInterpolation,0,ArealInterpolationGeometricCentroid,Parcel,97.3372781065089,FeatureClassBased,ReturnAll,,AddressPoint,,,1,37.7399663,-122.1593111,Relaxed
HARRISON ST & MOSS AV,Oakland,CA,,320,USCGeocoder,31.25,1,4.1,,,11,CityCentroid,Success,LOCATION_TYPE_STREET_ADDRESS,Meters,ArealInterpolation,206369070.265232,ArealInterpolationGeometricCentroid,City,50,FeatureClassBased,ReturnAll,,CityCentroid,,,1,37.7710887807485,-122.224976664539,Relaxed;Soundex
